,Unnamed: 0,admin_name,country,iso2,query,latitude,longitude
0,11137,Aakkâr,Lebanon,LB,"Aakkâr, Lebanon",34.5555009,36.2016452672363
1,41570,Aargau,Switzerland,CH,"Aargau, Switzerland",47.412396,8.1948321
2,10763,Aberdeen City,United Kingdom,GB,"Aberdeen City, United Kingdom",57.1482429,-2.0928095
3,9812,Aberdeenshire,United Kingdom,GB,"Aberdeenshire, United Kingdom",57.166667,-2.666667
4,5040,Abia,Nigeria,NG,"Abia, Nigeria",5.4540953,7.5153071
5,498,Abidjan,Côte d'Ivoire,CI,"Abidjan, Côte d'Ivoire",5.320357,-4.016107
6,8899,Abim,Uganda,UG,"Abim, Uganda",2.80475035,33.7509770137339
7,6772,Abkhazia,Georgia,GE,"Abkhazia, Georgia",43.1500226,41.2299786
8,29141,Abra,Philippines,PH,"Abra, Philippines",17.583333,120.75
9,6623,Abruzzo,Italy,IT,"Abruzzo, Italy",42.227681,13.854983
10,20588,Abyan,Yemen,YE,"Abyan, Yemen",13.786202,46.141766
11,5857,Abşeron,Azerbaijan,AZ,"Abşeron, Azerbaijan",40.3361899,49.2093000463894
12,1102,Abū Z̧aby,United Arab Emirates,AE,"Abū Z̧aby, United Arab Emirates",23.99764435,53.6439097569213
13,23795,Aceh,Indonesia,ID,"Aceh, Indonesia",4.3685491,97.0253024
14,11346,Acquaviva,San Marino,SM,"Acquaviva, San Marino",43.9464246,12.4191909
15,35545,Acre,Brazil,BR,"Acre, Brazil",-9.0478679,-70.5264976
16,15855,Ad Daqahlīyah,Egypt,EG,"Ad Daqahlīyah, Egypt",31.13800465,31.8882498684563
17,8091,Ad Dawḩah,Qatar,QA,"Ad Dawḩah, Qatar",,
18,12722,Ad Dākhilīyah,Oman,OM,"Ad Dākhilīyah, Oman",22.22597525,57.3692721956542
19,10846,Ada,Serbia,RS,"Ada, Serbia",45.7969129,20.133407
20,3442,Adamaoua,Cameroon,CM,"Adamaoua, Cameroon",6.8496708,13.2163222
21,12881,Adamawa,Nigeria,NG,"Adamawa, Nigeria",9.5129772,12.3881887
22,28185,Adana,Turkey,TR,"Adana, Turkey",36.9863599,35.3252861
23,10601,Addu,Maldives,MV,"Addu, Maldives",-0.6263536,73.1791074705682
24,7812,Adjumani,Uganda,UG,"Adjumani, Uganda",3.23712805,31.7858246217691
25,27346,Adrar,Algeria,DZ,"Adrar, Algeria",26.4888155,-1.35824421693654
26,8949,Adrar,Mauritania,MR,"Adrar, Mauritania",21.0090623,-10.2207449
27,4385,Adygeya,Russia,RU,"Adygeya, Russia",45.0247666,38.9331639
28,25107,Adıyaman,Turkey,TR,"Adıyaman, Turkey",37.78936,38.3141101
29,31085,Afyonkarahisar,Turkey,TR,"Afyonkarahisar, Turkey",38.6852729,30.6427411
30,12837,Agadez,Niger,NE,"Agadez, Niger",16.972556,7.990739
31,11729,Agago,Uganda,UG,"Agago, Uganda",2.9476598,33.3861056894718
32,30993,Agder,Norway,NO,"Agder, Norway",58.71944225,8.03496353455817
33,43014,Aguascalientes,Mexico,MX,"Aguascalientes, Mexico",22.0000001,-102.5000001
34,24116,Agusan del Norte,Philippines,PH,"Agusan del Norte, Philippines",8.92,125.46
35,16542,Agusan del Sur,Philippines,PH,"Agusan del Sur, Philippines",8.36,125.71
36,11751,Ahafo,Ghana,GH,"Ahafo, Ghana",6.94633355,-1.90095355028737
37,13639,Ahal,Turkmenistan,TM,"Ahal, Turkmenistan",38.8395548,58.8610186
38,26078,Ahuachapán,El Salvador,SV,"Ahuachapán, El Salvador",13.9234192,-89.8462907
39,1912,Aichi,Japan,JP,"Aichi, Japan",34.9991645,137.254574
40,11706,Aiga-i-le-Tai,Samoa,WS,"Aiga-i-le-Tai, Samoa",-13.86203095,-172.032837093232
41,11590,Aileu,Timor-Leste,TL,"Aileu, Timor-Leste",-8.7049799,125.662551805385
42,11276,Ainaro,Timor-Leste,TL,"Ainaro, Timor-Leste",-8.9969021,125.50482
43,11059,Aizkraukle,Latvia,LV,"Aizkraukle, Latvia",56.6010778,25.2542544
44,21383,Ajaria,Georgia,GE,"Ajaria, Georgia",41.67315085,41.9196652130038
45,11027,Ajdovščina,Slovenia,SI,"Ajdovščina, Slovenia",45.8885557,13.9048561
46,31227,Akita,Japan,JP,"Akita, Japan",39.6898802,140.342608
47,22965,Aklan,Philippines,PH,"Aklan, Philippines",11.6297894,122.2481177
48,11011,Akmenė,Lithuania,LT,"Akmenė, Lithuania",56.2460515,22.7545972
49,36092,Aksaray,Turkey,TR,"Aksaray, Turkey",38.4326291,33.8976963
50,26923,Akureyri,Iceland,IS,"Akureyri, Iceland",65.68390355,-18.1121755981344
51,18523,Akwa Ibom,Nigeria,NG,"Akwa Ibom, Nigeria",4.99063795,7.79662045137846
52,13127,Al Anbār,Iraq,IQ,"Al Anbār, Iraq",32.7889443,41.6093983
53,13520,Al Aḩmadī,Kuwait,KW,"Al Aḩmadī, Kuwait",28.8673126,48.0223415376879
54,6167,Al Balqā’,Jordan,JO,"Al Balqā’, Jordan",31.9782917,35.6585232495179
55,7686,Al Bayḑā’,Yemen,YE,"Al Bayḑā’, Yemen",14.34166,45.394422
56,580,Al Başrah,Iraq,IQ,"Al Başrah, Iraq",30.4952371,47.8090981
57,21096,Al Baḩr al Aḩmar,Egypt,EG,"Al Baḩr al Aḩmar, Egypt",25.5867279,34.1694641025951
58,6647,Al Buraymī,Oman,OM,"Al Buraymī, Oman",24.1614948,56.1464101971747
59,42490,Al Buţnān,Libya,LY,"Al Buţnān, Libya",30.1782873,24.0530924
60,12809,Al Buḩayrah,Egypt,EG,"Al Buḩayrah, Egypt",30.7915206,30.3465488479697
61,19168,Al Bāḩah,Saudi Arabia,SA,"Al Bāḩah, Saudi Arabia",20.2372671,41.4615479
62,9368,Al Fayyūm,Egypt,EG,"Al Fayyūm, Egypt",29.3074076,30.8399651
63,6087,Al Fujayrah,United Arab Emirates,AE,"Al Fujayrah, United Arab Emirates",25.3367281,56.1727042588826
64,24353,Al Gharbīyah,Egypt,EG,"Al Gharbīyah, Egypt",30.8393003,30.9963429
65,145,Al Iskandarīyah,Egypt,EG,"Al Iskandarīyah, Egypt",30.9432983,29.7656450400713
66,2372,Al Ismā‘īlīyah,Egypt,EG,"Al Ismā‘īlīyah, Egypt",30.6043775,32.2770825
67,44381,Al Jabal al Akhḑar,Libya,LY,"Al Jabal al Akhḑar, Libya",32.4874119,21.7089729
68,22150,Al Jabal al Gharbī,Libya,LY,"Al Jabal al Gharbī, Libya",30.704649,13.2233859
69,9004,Al Jafārah,Libya,LY,"Al Jafārah, Libya",32.5587916,13.0707024
70,1861,Al Jahrā’,Kuwait,KW,"Al Jahrā’, Kuwait",29.49856155,47.5440407579063
71,7349,Al Janūbīyah,Bahrain,BH,"Al Janūbīyah, Bahrain",25.64467825,50.8026081236168
72,22367,Al Jawf,Saudi Arabia,SA,"Al Jawf, Saudi Arabia",29.7673818,39.5629883
73,9939,Al Jawf,Yemen,YE,"Al Jawf, Yemen",16.689733,45.611556
74,9535,Al Jufrah,Libya,LY,"Al Jufrah, Libya",28.0055724,16.7430292
75,6066,Al Jīzah,Egypt,EG,"Al Jīzah, Egypt",29.9870753,31.2118063
76,9177,Al Karak,Jordan,JO,"Al Karak, Jordan",31.1847222,35.7047218
77,3253,Al Khawr wa adh Dhakhīrah,Qatar,QA,"Al Khawr wa adh Dhakhīrah, Qatar",25.6837333,51.5031212
78,8951,Al Kufrah,Libya,LY,"Al Kufrah, Libya",23.3323776,22.0840331
79,12941,Al Lādhiqīyah,Syria,SY,"Al Lādhiqīyah, Syria",35.7500047,35.8645167
80,648,Al Madīnah al Munawwarah,Saudi Arabia,SA,"Al Madīnah al Munawwarah, Saudi Arabia",24.471153,39.6111216
81,1390,Al Mafraq,Jordan,JO,"Al Mafraq, Jordan",32.3423619,36.2075282
82,8635,Al Mahrah,Yemen,YE,"Al Mahrah, Yemen",17,51.5
83,3768,Al Marj,Libya,LY,"Al Marj, Libya",31.9108728,21.1477877
84,3258,Al Marqab,Libya,LY,"Al Marqab, Libya",32.4071058,13.8621903
85,10845,Al Maḩwīt,Yemen,YE,"Al Maḩwīt, Yemen",15.391981,43.536162
86,9198,Al Minyā,Egypt,EG,"Al Minyā, Egypt",28.0893325,30.7570623
87,9144,Al Minūfīyah,Egypt,EG,"Al Minūfīyah, Egypt",30.4370098,30.7466851638558
88,3080,Al Muthanná,Iraq,IQ,"Al Muthanná, Iraq",30.5923739,45.2916041
89,6400,Al Muḩarraq,Bahrain,BH,"Al Muḩarraq, Bahrain",26.2465946,50.6164127
90,6296,Al Qalyūbīyah,Egypt,EG,"Al Qalyūbīyah, Egypt",30.33362925,31.2213568641637
91,18697,Al Qaşīm,Saudi Arabia,SA,"Al Qaşīm, Saudi Arabia",26.1942235,43.4565711
92,7900,Al Qunayţirah,Syria,SY,"Al Qunayţirah, Syria",33.1246885,35.824942
93,1870,Al Qādisīyah,Iraq,IQ,"Al Qādisīyah, Iraq",31.9599617,45.1197814
94,1300,Al Qāhirah,Egypt,EG,"Al Qāhirah, Egypt",30.0443879,31.2357257
95,8989,Al Uqşur,Egypt,EG,"Al Uqşur, Egypt",25.702096,32.647186
96,6174,Al Wakrah,Qatar,QA,"Al Wakrah, Qatar",25.1566623,51.6013212
97,11837,Al Wusţá,Oman,OM,"Al Wusţá, Oman",19.679297,56.5911339832251
98,44510,Al Wādī al Jadīd,Egypt,EG,"Al Wādī al Jadīd, Egypt",24.8766665,28.7757345317604
99,1791,Al Wāḩāt,Libya,LY,"Al Wāḩāt, Libya",29.1573123,21.7496392
100,3509,Al Ḩasakah,Syria,SY,"Al Ḩasakah, Syria",36.43645445,40.5793815615653
101,15378,Al Ḩudaydah,Yemen,YE,"Al Ḩudaydah, Yemen",15.1159326,42.844785
102,8632,Al Ḩudūd ash Shamālīyah,Saudi Arabia,SA,"Al Ḩudūd ash Shamālīyah, Saudi Arabia",30,42.666667
103,4240,Al ‘Aqabah,Jordan,JO,"Al ‘Aqabah, Jordan",29.5266483,35.0075433
104,8576,Al ‘Āşimah,Bahrain,BH,"Al ‘Āşimah, Bahrain",26.4243233,50.4747251234548
105,189,Al ‘Āşimah,Jordan,JO,"Al ‘Āşimah, Jordan",31.583333,36.333333
106,263,Al ‘Āşimah,Kuwait,KW,"Al ‘Āşimah, Kuwait",29.3796532,47.9734174
107,39309,Alabama,United States,US,"Alabama, United States",33.2588817,-86.8295337
108,27163,Alagoas,Brazil,BR,"Alagoas, Brazil",-9.6611661,-36.6502426
109,34624,Alajuela,Costa Rica,CR,"Alajuela, Costa Rica",10.45233165,-84.4663284268026
110,39829,Alaska,United States,US,"Alaska, United States",64.4459613,-149.680909
111,6770,Alba,Romania,RO,"Alba, Romania",46.0159362,23.5468496610192
112,13249,Albay,Philippines,PH,"Albay, Philippines",13.216667,123.55
113,13797,Alberta,Canada,CA,"Alberta, Canada",55.001251,-115.002136
114,5079,Alborz,Iran,IR,"Alborz, Iran",35.9413239,50.7884216
115,11014,Alebtong,Uganda,UG,"Alebtong, Uganda",2.26740645,33.3200225517687
116,11450,Aleksandrovac,Serbia,RS,"Aleksandrovac, Serbia",43.4586105,21.0465876
117,11592,Aleksinac,Serbia,RS,"Aleksinac, Serbia",43.5405235,21.70884
118,6253,Alger,Algeria,DZ,"Alger, Algeria",36.7753606,3.0601882
119,7848,Ali Sabieh,Djibouti,DJ,"Ali Sabieh, Djibouti",11.2133809,42.8699249
120,44151,Alibori,Benin,BJ,"Alibori, Benin",11.4649482,2.7938798
121,11273,Alibunar,Serbia,RS,"Alibunar, Serbia",45.0800389,20.966524
122,16821,Alta Verapaz,Guatemala,GT,"Alta Verapaz, Guatemala",15.5949705,-90.0918030830396
123,40520,Altay,Russia,RU,"Altay, Russia",49.7995174,86.5788193
124,42997,Altayskiy Kray,Russia,RU,"Altayskiy Kray, Russia",,
125,44502,Alto Paraguay,Paraguay,PY,"Alto Paraguay, Paraguay",-20.5,-59.166667
126,5715,Alto Paraná,Paraguay,PY,"Alto Paraná, Paraguay",-25.5,-54.833333
127,7155,Alytaus Miestas,Lithuania,LT,"Alytaus Miestas, Lithuania",55.9515015,23.3308398
128,39297,Alytus,Lithuania,LT,"Alytus, Lithuania",54.3961344,24.0459268
129,11083,Alūksne,Latvia,LV,"Alūksne, Latvia",57.4204759,27.0505075
130,34741,Amambay,Paraguay,PY,"Amambay, Paraguay",-23,-56
131,23193,Amapá,Brazil,BR,"Amapá, Brazil",1.3545442,-51.9161977
132,20327,Amasya,Turkey,TR,"Amasya, Turkey",40.6569451,35.7727169
133,15696,Amazonas,Brazil,BR,"Amazonas, Brazil",-4.479925,-63.5185396
134,8228,Amazonas,Colombia,CO,"Amazonas, Colombia",-1.305299,-71.4659212
135,17141,Amazonas,Peru,PE,"Amazonas, Peru",-5,-78
136,34841,Amazonas,Venezuela,VE,"Amazonas, Venezuela",3.422575,-65.723231
137,7673,Ammóchostos,Cyprus,CY,"Ammóchostos, Cyprus",35.1245436,33.9325419
138,8762,Amnat Charoen,Thailand,TH,"Amnat Charoen, Thailand",15.9949473,104.7328575
139,10455,Amolatar,Uganda,UG,"Amolatar, Uganda",1.6374596,32.6328229468062
140,11335,Amudat,Uganda,UG,"Amudat, Uganda",1.82619575,34.9312697915409
141,10955,Amuria,Uganda,UG,"Amuria, Uganda",1.98190765,33.6574718580461
142,13696,Amurskaya Oblast’,Russia,RU,"Amurskaya Oblast’, Russia",51.7195684,55.1204791
143,10820,Amuru,Uganda,UG,"Amuru, Uganda",3.1288655,32.1024832754124
144,270,Amānat al ‘Āşimah,Yemen,YE,"Amānat al ‘Āşimah, Yemen",15.35,44.2
145,8014,An Giang,Vietnam,VN,"An Giang, Vietnam",10.5392057,105.2312822
146,1156,An Najaf,Iraq,IQ,"An Najaf, Iraq",32.0010227,44.3299926
147,5904,An Nuqāţ al Khams,Libya,LY,"An Nuqāţ al Khams, Libya",32.7177153,11.9896415
148,1852,Anambra,Nigeria,NG,"Anambra, Nigeria",6.2183136,6.9531842
149,27327,Anatolikí Makedonía kai Thráki,Greece,GR,"Anatolikí Makedonía kai Thráki, Greece",,
150,23384,Ancash,Peru,PE,"Ancash, Peru",-9.5,-77.75
151,17419,Andalusia,Spain,ES,"Andalusia, Spain",37.3399964,-4.5811614
152,5944,Andaman and Nicobar Islands,India,IN,"Andaman and Nicobar Islands, India",12.61123865,92.8316540641493
153,42505,Andhra Pradesh,India,IN,"Andhra Pradesh, India",15.9240905,80.1863809
154,1707,Andijon,Uzbekistan,UZ,"Andijon, Uzbekistan",40.7740809,72.5355339
155,869,Andorra la Vella,Andorra,AD,"Andorra la Vella, Andorra",42.5069391,1.5212467
156,11495,Andrijevica,Montenegro,ME,"Andrijevica, Montenegro",42.7339619,19.7917886
157,10804,Anenii Noi,Moldova,MD,"Anenii Noi, Moldova",46.87859455,29.2313044730898
158,42677,Ang Thong,Thailand,TH,"Ang Thong, Thailand",14.6495224,100.3170382
159,1635,Angeles,Philippines,PH,"Angeles, Philippines",15.1389351,120.5875321
160,10212,Angus,United Kingdom,GB,"Angus, United Kingdom",56.666667,-2.916667
161,60,Anhui,China,CN,"Anhui, China",32,117
162,29511,Anjouan,Comoros,KM,"Anjouan, Comoros",-12.22656805,44.4107048609822
163,15808,Ankara,Turkey,TR,"Ankara, Turkey",39.7160439,32.7059948
164,11263,Ankaran,Slovenia,SI,"Ankaran, Slovenia",45.5789629,13.7364985
165,2592,Annaba,Algeria,DZ,"Annaba, Algeria",36.8982165,7.7549272
166,11166,Annobón,Equatorial Guinea,GQ,"Annobón, Equatorial Guinea",-1.4196148,5.6409968
167,13193,Antalya,Turkey,TR,"Antalya, Turkey",36.8864752,30.7029585
168,22065,Antananarivo,Madagascar,MG,"Antananarivo, Madagascar",-18.9100122,47.5255809
169,43475,Antioquia,Colombia,CO,"Antioquia, Colombia",7.0000085,-75.5000086
170,18745,Antique,Philippines,PH,"Antique, Philippines",11.1705066,122.083333
171,42353,Antofagasta,Chile,CL,"Antofagasta, Chile",-23.6041314,-69.0842783
172,9100,Antrim and Newtownabbey,United Kingdom,GB,"Antrim and Newtownabbey, United Kingdom",54.6951611,-5.94696560113458
173,34094,Antsiranana,Madagascar,MG,"Antsiranana, Madagascar",-12.2779134,49.2913394
174,10993,Anykščiai,Lithuania,LT,"Anykščiai, Lithuania",55.5257935,25.1061247
175,7459,Anzoátegui,Venezuela,VE,"Anzoátegui, Venezuela",9.0197925,-64.2168001232841
176,15420,Aomori,Japan,JP,"Aomori, Japan",40.886943,140.590121
177,6660,Apac,Uganda,UG,"Apac, Uganda",1.93372575,32.5018028167538
178,8508,Apatin,Serbia,RS,"Apatin, Serbia",45.6712544,18.9817862
179,25115,Apayao,Philippines,PH,"Apayao, Philippines",18.12,121.19
180,11573,Apače,Slovenia,SI,"Apače, Slovenia",46.6972894,15.9096217
181,29537,Appenzell Ausserrhoden,Switzerland,CH,"Appenzell Ausserrhoden, Switzerland",47.3960076,9.3705839
182,11112,Appenzell Innerrhoden,Switzerland,CH,"Appenzell Innerrhoden, Switzerland",47.3007262,9.3991527
183,4795,Apure,Venezuela,VE,"Apure, Venezuela",7.07357815,-68.8202024616505
184,6538,Apurímac,Peru,PE,"Apurímac, Peru",-14,-73
185,2344,Ar Raqqah,Syria,SY,"Ar Raqqah, Syria",35.949678,39.0089212
186,14943,Ar Rayyān,Qatar,QA,"Ar Rayyān, Qatar",24.9304741,50.9776887766882
187,35869,Ar Riyāḑ,Saudi Arabia,SA,"Ar Riyāḑ, Saudi Arabia",24.638916,46.7160104
188,3949,Arad,Romania,RO,"Arad, Romania",46.1753793,21.3196342
189,9170,Aragatsotn,Armenia,AM,"Aragatsotn, Armenia",40.3827655,44.114727
190,41988,Aragon,Spain,ES,"Aragon, Spain",41.3787291,-0.7639373
191,3088,Aragua,Venezuela,VE,"Aragua, Venezuela",9.92019985,-66.8874694010422
192,11326,Aranđelovac,Serbia,RS,"Aranđelovac, Serbia",44.3074611,20.5572396
193,32669,Ararat,Armenia,AM,"Ararat, Armenia",40.0053589,44.7315157
194,6031,Arauca,Colombia,CO,"Arauca, Colombia",6.6666755,-71.0000086
195,37205,Araucanía,Chile,CL,"Araucanía, Chile",-38.6678955,-72.2610066
196,11032,Aračinovo,Macedonia,MK,"Aračinovo, Macedonia",42.0252965,21.5577659
197,23429,Arbīl,Iraq,IQ,"Arbīl, Iraq",36.1911744,44.0094145
198,29739,Ardabīl,Iran,IR,"Ardabīl, Iran",38.4583983,47.9313001
199,22619,Ardahan,Turkey,TR,"Ardahan, Turkey",41.0372501,42.7462189
200,6781,Ards and North Down,United Kingdom,GB,"Ards and North Down, United Kingdom",54.64896425,-5.56278521504939
201,42243,Arequipa,Peru,PE,"Arequipa, Peru",-16,-72.25
202,8111,Argeş,Romania,RO,"Argeş, Romania",44.9939764,24.8488685163782
203,32801,Argyll and Bute,United Kingdom,GB,"Argyll and Bute, United Kingdom",56.4603494,-5.8618419478791
204,9588,Arhangay,Mongolia,MN,"Arhangay, Mongolia",47.862646,101.0316283
205,9390,Ariatholhu Dhekunuburi,Maldives,MV,"Ariatholhu Dhekunuburi, Maldives",,
206,11327,Ariatholhu Uthuruburi,Maldives,MV,"Ariatholhu Uthuruburi, Maldives",,
207,3255,Arica y Parinacota,Chile,CL,"Arica y Parinacota, Chile",-18.5713496,-69.7884774
208,11429,Arilje,Serbia,RS,"Arilje, Serbia",43.7505484,20.1003115
209,6652,Arima,Trinidad and Tobago,TT,"Arima, Trinidad and Tobago",10.6372057,-61.2829762
210,2519,Arizona,United States,US,"Arizona, United States",34.395342,-111.763275
211,28428,Arkansas,United States,US,"Arkansas, United States",35.2048883,-92.4479108
212,10753,Arkhabīl Suquţrá,Yemen,YE,"Arkhabīl Suquţrá, Yemen",12.5,53.833333
213,24123,Arkhangel’skaya Oblast’,Russia,RU,"Arkhangel’skaya Oblast’, Russia",61.8960321,42.2420063
214,29278,"Armagh City, Banbridge and Craigavon",United Kingdom,GB,"Armagh City, Banbridge and Craigavon, United Kingdom",,
215,7570,Armavir,Armenia,AM,"Armavir, Armenia",40.1556494,44.038797
216,6456,Arta,Djibouti,DJ,"Arta, Djibouti",11.3861664,42.5742801
217,18984,Artemisa,Cuba,CU,"Artemisa, Cuba",22.8272763,-82.9259244808856
218,4808,Artibonite,Haiti,HT,"Artibonite, Haiti",19.2176386,-72.5837813
219,7410,Artigas,Uruguay,UY,"Artigas, Uruguay",-30.6170756,-56.9373451
220,23368,Artvin,Turkey,TR,"Artvin, Turkey",41.160506,41.8398627
221,2648,Arua,Uganda,UG,"Arua, Uganda",3.0014096,31.0093527073583
222,6914,Arunāchal Pradesh,India,IN,"Arunāchal Pradesh, India",28.0937702,94.5921326
223,38451,Arusha,Tanzania,TZ,"Arusha, Tanzania",-3.3696827,36.6880794
224,14149,As Sulaymānīyah,Iraq,IQ,"As Sulaymānīyah, Iraq",35.5570501,45.4425963
225,29029,As Suwaydā’,Syria,SY,"As Suwaydā’, Syria",32.7093878,36.5687496
226,1509,As Suways,Egypt,EG,"As Suways, Egypt",29.4165427,32.1490967
227,11826,Ascension,"Saint Helena, Ascension, and Tristan da Cunha",SH,"Ascension, Saint Helena, Ascension, and Tristan da Cunha",,
228,11733,Ash Shamāl,Qatar,QA,"Ash Shamāl, Qatar",26.0017139,51.2174081966143
229,9692,Ash Shamālīyah,Bahrain,BH,"Ash Shamālīyah, Bahrain",25.67486685,50.8108028844554
230,20236,Ash Sharqīyah,Egypt,EG,"Ash Sharqīyah, Egypt",30.63327745,31.7893739179913
231,5246,Ash Sharqīyah,Saudi Arabia,SA,"Ash Sharqīyah, Saudi Arabia",23.3036077,50.1258804
232,612,Ash Shāriqah,United Arab Emirates,AE,"Ash Shāriqah, United Arab Emirates",25.2311534,54.2190083135592
233,34002,Ash Shīḩānīyah,Qatar,QA,"Ash Shīḩānīyah, Qatar",,
234,398,Ashanti,Ghana,GH,"Ashanti, Ghana",6.8003319,-1.5188142
235,5480,Assaba,Mauritania,MR,"Assaba, Mauritania",16.5809185,-11.5363724
236,25226,Assam,India,IN,"Assam, India",26.4073841,93.2551303
237,9825,Astara,Azerbaijan,AZ,"Astara, Azerbaijan",38.51559775,48.8283223441261
238,21736,Astrakhanskaya Oblast’,Russia,RU,"Astrakhanskaya Oblast’, Russia",46.3313721,48.0857615167918
239,6366,Asturias,Spain,ES,"Asturias, Spain",43.3133868,-5.94192
240,796,Asunción,Paraguay,PY,"Asunción, Paraguay",-25.2800459,-57.6343814
241,2545,Aswān,Egypt,EG,"Aswān, Egypt",24.091071,32.897306
242,6242,Asyūţ,Egypt,EG,"Asyūţ, Egypt",27.1832822,31.1853836
243,16277,Atacama,Chile,CL,"Atacama, Chile",-27.5571783,-70.0156882
244,5796,Atacora,Benin,BJ,"Atacora, Benin",10.7160515,1.5331527
245,4805,Atlantique,Benin,BJ,"Atlantique, Benin",6.540829,2.223095
246,577,Atlántico,Colombia,CO,"Atlántico, Colombia",10.6773422,-74.9718666
247,3204,Atlántida,Honduras,HN,"Atlántida, Honduras",15.8172492,-87.1146935095429
248,9395,Attapu,Laos,LA,"Attapu, Laos",14.79073,107.100831752092
249,10552,Attard,Malta,MT,"Attard, Malta",35.8909172,14.4430093
250,8317,Attikí,Greece,GR,"Attikí, Greece",37.9946543,23.7994025126933
251,11499,Atua,Samoa,WS,"Atua, Samoa",-13.954878,-171.651245538585
252,3177,Auckland,New Zealand,NZ,"Auckland, New Zealand",-36.852095,174.7631803
253,6319,Augšdaugava,Latvia,LV,"Augšdaugava, Latvia",55.85613225,27.0458075800516
254,28724,Aurora,Philippines,PH,"Aurora, Philippines",16.0474764,121.6700916
255,812,Australian Capital Territory,Australia,AU,"Australian Capital Territory, Australia",-35.4883502,149.0026942
256,39965,Auvergne-Rhône-Alpes,France,FR,"Auvergne-Rhône-Alpes, France",45.2968119,4.6604809
257,11169,Avannaata,Greenland,GL,"Avannaata, Greenland",74.9613436,-51.8582493738593
258,19462,Aveiro,Portugal,PT,"Aveiro, Portugal",40.640496,-8.6537841
259,11746,Awdal,Somalia,SO,"Awdal, Somalia",10.6951152,43.4904963
260,27980,Ayacucho,Peru,PE,"Ayacucho, Peru",-14,-74
261,34052,Aydın,Turkey,TR,"Aydın, Turkey",37.7405798,28.0676404
262,38667,Ayeyarwady,Myanmar,MM,"Ayeyarwady, Myanmar",16.8340079,95.1804705
263,28441,Aysén,Chile,CL,"Aysén, Chile",-46.1434629,-74.2127886250161
264,2420,Az Zarqā’,Jordan,JO,"Az Zarqā’, Jordan",32.0668425,36.0885771
265,3281,Az Zāwiyah,Libya,LY,"Az Zāwiyah, Libya",32.3787032,12.5214934
266,24628,Azad Kashmir,Pakistan,PK,"Azad Kashmir, Pakistan",33.84412,73.796642
267,6639,Azores,Portugal,PT,"Azores, Portugal",37.80855645,-25.4731373912453
268,2131,Azuay,Ecuador,EC,"Azuay, Ecuador",-3.0524451,-79.2395135
269,11650,Az̧ Z̧a‘āyin,Qatar,QA,"Az̧ Z̧a‘āyin, Qatar",,
270,5918,Az̧ Z̧āhirah,Oman,OM,"Az̧ Z̧āhirah, Oman",22.65052325,56.0616295382364
271,11539,Aïn Defla,Algeria,DZ,"Aïn Defla, Algeria",36.15868425,2.08428173035837
272,6438,Aïn Temouchent,Algeria,DZ,"Aïn Temouchent, Algeria",35.36512965,-0.945217066433566
273,4564,Ağcabədi,Azerbaijan,AZ,"Ağcabədi, Azerbaijan",39.99899575,47.4176577568883
274,33830,Ağdam,Azerbaijan,AZ,"Ağdam, Azerbaijan",39.9902741,46.9279731
275,8445,Ağdaş,Azerbaijan,AZ,"Ağdaş, Azerbaijan",40.5621684,47.3919972783833
276,25754,Ağrı,Turkey,TR,"Ağrı, Turkey",39.7779175,43.1684370980216
277,9346,Ağstafa,Azerbaijan,AZ,"Ağstafa, Azerbaijan",41.2063715,45.5342476628258
278,9345,Ağsu,Azerbaijan,AZ,"Ağsu, Azerbaijan",40.55830005,48.3529710033387
279,779,Aşgabat,Turkmenistan,TM,"Aşgabat, Turkmenistan",37.9404648,58.3823487
280,9006,Aţ Ţafīlah,Jordan,JO,"Aţ Ţafīlah, Jordan",30.79974695,35.7377625861639
281,9161,Aḑ Ḑāli‘,Yemen,YE,"Aḑ Ḑāli‘, Yemen",13.922542,44.768269
282,11455,A‘ana,Samoa,WS,"A‘ana, Samoa",,
283,13288,Ba,Fiji,FJ,"Ba, Fiji",-17.5457103,177.6840732
284,19784,Baalbek-Hermel,Lebanon,LB,"Baalbek-Hermel, Lebanon",34.1763885,36.315774519008
285,11523,Babušnica,Serbia,RS,"Babušnica, Serbia",43.067962,22.411508
286,11144,Babək,Azerbaijan,AZ,"Babək, Azerbaijan",39.25471735,45.5189814563724
287,1347,Bacolod,Philippines,PH,"Bacolod, Philippines",10.6762836,122.9513786
288,33966,Bacău,Romania,RO,"Bacău, Romania",46.4228703,26.7163990785067
289,6769,Badakhshān,Afghanistan,AF,"Badakhshān, Afghanistan",36.8040254,71.367658
290,25409,Baden-Württemberg,Germany,DE,"Baden-Württemberg, Germany",48.53775,9.041169
291,19546,Bafatá,Guinea-Bissau,GW,"Bafatá, Guinea-Bissau",12.13485115,-14.7503609856523
292,5169,Baghdād,Iraq,IQ,"Baghdād, Iraq",33.3061701,44.3872213
293,5329,Baghlān,Afghanistan,AF,"Baghlān, Afghanistan",35.75,69
294,36720,Bago,Myanmar,MM,"Bago, Myanmar",18.2457067,96.1004931
295,15777,Baguio,Philippines,PH,"Baguio, Philippines",16.4119955,120.593371
296,17389,Bahia,Brazil,BR,"Bahia, Brazil",-12.285251,-41.9294776
297,24468,Baja California,Mexico,MX,"Baja California, Mexico",30.0338923,-115.1425107
298,38340,Baja California Sur,Mexico,MX,"Baja California Sur, Mexico",25.5818014,-111.5706164
299,14223,Baja Verapaz,Guatemala,GT,"Baja Verapaz, Guatemala",15.1170798,-90.4109616085507
300,8749,Bajina Bašta,Serbia,RS,"Bajina Bašta, Serbia",43.9712226,19.5660149
301,6239,Bakool,Somalia,SO,"Bakool, Somalia",4.000003,43.999993
302,28485,Bakı,Azerbaijan,AZ,"Bakı, Azerbaijan",40.3755885,49.8328009
303,11296,Balaka,Malawi,MW,"Balaka, Malawi",-15.04847375,35.0531597899869
304,11009,Balakən,Azerbaijan,AZ,"Balakən, Azerbaijan",41.7246062,46.4089364
305,35171,Balearic Islands,Spain,ES,"Balearic Islands, Spain",39.613432,2.88291845294396
306,9512,Bali,Indonesia,ID,"Bali, Indonesia",-8.3304977,115.0906401
307,23052,Balkan,Turkmenistan,TM,"Balkan, Turkmenistan",39.9353714,54.9120055
308,12914,Balkh,Afghanistan,AF,"Balkh, Afghanistan",36.7581256,66.8980826
309,5617,Balochistan,Pakistan,PK,"Balochistan, Pakistan",28,66
310,11131,Balvi,Latvia,LV,"Balvi, Latvia",57.1330207,27.2650194
311,10708,Balzan,Malta,MT,"Balzan, Malta",35.8986113,14.4510172
312,11190,Balzers,Liechtenstein,LI,"Balzers, Liechtenstein",47.0688822,9.506159
313,27625,Balıkesir,Turkey,TR,"Balıkesir, Turkey",39.5400798,28.0228793
314,409,Bamako,Mali,ML,"Bamako, Mali",12.61326555,-7.9847391362413
315,10345,Bamingui-Bangoran,Central African Republic,CF,"Bamingui-Bangoran, Central African Republic",8.698547,20.5281149
316,177,Banaadir,Somalia,SO,"Banaadir, Somalia",2.0783351,45.2805421
317,23821,Banghāzī,Libya,LY,"Banghāzī, Libya",,
318,776,Bangui,Central African Republic,CF,"Bangui, Central African Republic",4.3635118,18.5835913
319,810,Banjul,The Gambia,GM,"Banjul, The Gambia",13.45535,-16.575646
320,34296,Banská Bystrica,Slovakia,SK,"Banská Bystrica, Slovakia",48.7383895,19.1585805
321,5991,Banteay Meanchey,Cambodia,KH,"Banteay Meanchey, Cambodia",13.7989147,102.8862666
322,1331,Banten,Indonesia,ID,"Banten, Indonesia",-6.4453801,106.1375586
323,8363,Banī Suwayf,Egypt,EG,"Banī Suwayf, Egypt",29.0729812,31.0982562
324,10341,Bar,Montenegro,ME,"Bar, Montenegro",42.0979745,19.0954528
325,38860,Baranya,Hungary,HU,"Baranya, Hungary",45.9714436,18.1669246
326,14995,Barh-El-Gazel,Chad,TD,"Barh-El-Gazel, Chad",14.4682468,16.9416836
327,33809,Bari,Somalia,SO,"Bari, Somalia",10.1903509,50.1298044
328,11308,Barima-Waini,Guyana,GY,"Barima-Waini, Guyana",7.7559147,-59.7179021918006
329,5490,Barinas,Venezuela,VE,"Barinas, Venezuela",8.1739775,-69.9755552324843
330,31675,Baringo,Kenya,KE,"Baringo, Kenya",0.71400995,36.0172739
331,8049,Barishal,Bangladesh,BD,"Barishal, Bangladesh",22.4934035,90.3548015
332,5595,Barking and Dagenham,United Kingdom,GB,"Barking and Dagenham, United Kingdom",51.5540907,0.150488888010394
333,6627,Barnet,United Kingdom,GB,"Barnet, United Kingdom",51.65309,-0.2002261
334,8800,Barnsley,United Kingdom,GB,"Barnsley, United Kingdom",53.5527719,-1.4827755
335,4069,Bartın,Turkey,TR,"Bartın, Turkey",41.4947715,32.4354255
336,25793,Bas-Sassandra,Côte d'Ivoire,CI,"Bas-Sassandra, Côte d'Ivoire",5.3523063,-6.6766897
337,23638,Bas-Uélé,Congo (Kinshasa),CD,"Bas-Uélé, Congo (Kinshasa)",3.66444875,25.2137870548058
338,10998,Basarabeasca,Moldova,MD,"Basarabeasca, Moldova",46.3336041,28.9615656
339,9181,Basel-Landschaft,Switzerland,CH,"Basel-Landschaft, Switzerland",47.5092938,7.6588333
340,23693,Basel-Stadt,Switzerland,CH,"Basel-Stadt, Switzerland",47.5579097,7.5927728
341,5283,Bashkortostan,Russia,RU,"Bashkortostan, Russia",54.4747553,55.9784582
342,4695,Basilan,Philippines,PH,"Basilan, Philippines",6.578645,122.034922
343,37058,Basilicata,Italy,IT,"Basilicata, Italy",40.500571,16.081953
344,36751,Basque Country,Spain,ES,"Basque Country, Spain",42.72865305,-1.97383746697463
345,31478,Basse-Kotto,Central African Republic,CF,"Basse-Kotto, Central African Republic",5.1283201,21.3883825
346,8140,Bataan,Philippines,PH,"Bataan, Philippines",14.6436031,120.4657622
347,10911,Batanes,Philippines,PH,"Batanes, Philippines",20.6442465,121.8939456
348,3006,Batangas,Philippines,PH,"Batangas, Philippines",13.9146826,121.0867566
349,6012,Bath and North East Somerset,United Kingdom,GB,"Bath and North East Somerset, United Kingdom",51.35632375,-2.48666142450209
350,22140,Batha,Chad,TD,"Batha, Chad",13.8367731,18.9649806
351,31577,Batken,Kyrgyzstan,KG,"Batken, Kyrgyzstan",39.8660893,71.5749851075522
352,20198,Batman,Turkey,TR,"Batman, Turkey",37.7874104,41.2573924
353,2378,Batna,Algeria,DZ,"Batna, Algeria",35.3384291,5.73154529900057
354,11651,Batočina,Serbia,RS,"Batočina, Serbia",44.1545512,21.0801314
355,4719,Battambang,Cambodia,KH,"Battambang, Cambodia",12.9256791,103.231713642745
356,10120,Baucau,Timor-Leste,TL,"Baucau, Timor-Leste",-8.55888985,126.474749322662
357,1205,Bauchi,Nigeria,NG,"Bauchi, Nigeria",10.6228284,10.0287754
358,10899,Bauska,Latvia,LV,"Bauska, Latvia",56.4082863,24.1876674
359,43216,Bavaria,Germany,DE,"Bavaria, Germany",48.9467562,11.4038717
360,26460,Bay,Somalia,SO,"Bay, Somalia",2.9999946,43.500177
361,14980,Bay of Plenty,New Zealand,NZ,"Bay of Plenty, New Zealand",-37.9503756,176.938287361554
362,43280,Bayan-Ölgiy,Mongolia,MN,"Bayan-Ölgiy, Mongolia",48.5470083,89.8549358
363,8696,Bayanhongor,Mongolia,MN,"Bayanhongor, Mongolia",45.2380937,99.5146799
364,43397,Bayburt,Turkey,TR,"Bayburt, Turkey",40.2023027,40.2121599
365,11550,Bayelsa,Nigeria,NG,"Bayelsa, Nigeria",4.7629786,6.028898
366,11111,Bač,Serbia,RS,"Bač, Serbia",45.3916793,19.2368045
367,8467,Bačka Palanka,Serbia,RS,"Bačka Palanka, Serbia",45.2497012,19.3966495
368,9918,Bačka Topola,Serbia,RS,"Bačka Topola, Serbia",45.8121657,19.6304705
369,11098,Bački Petrovac,Serbia,RS,"Bački Petrovac, Serbia",45.3600646,19.5914331
370,12115,Bedford,United Kingdom,GB,"Bedford, United Kingdom",52.1363806,-0.4675041
371,1297,Beijing,China,CN,"Beijing, China",39.9057136,116.3912972
372,22165,Beja,Portugal,PT,"Beja, Portugal",38.0154479,-7.8650368
373,3624,Bejaïa,Algeria,DZ,"Bejaïa, Algeria",36.7511783,5.0643687
374,10836,Bela Crkva,Serbia,RS,"Bela Crkva, Serbia",44.9001235,21.4230044
375,11533,Bela Palanka,Serbia,RS,"Bela Palanka, Serbia",43.2179542,22.3112654
376,25201,Belait,Brunei,BN,"Belait, Brunei",4.43499385,114.494652420528
377,2121,Belfast,United Kingdom,GB,"Belfast, United Kingdom",54.596391,-5.9301829
378,12415,Belgorodskaya Oblast’,Russia,RU,"Belgorodskaya Oblast’, Russia",,
379,36398,Belize,Belize,BZ,"Belize, Belize",16.8259793,-88.7600927
380,11352,Beltinci,Slovenia,SI,"Beltinci, Slovenia",46.606936,16.2350217
381,8346,Ben Arous,Tunisia,TN,"Ben Arous, Tunisia",36.63064825,10.2100827038175
382,6106,Bender,Moldova,MD,"Bender, Moldova",46.8218177,29.4819196
383,11476,Benedikt,Slovenia,SI,"Benedikt, Slovenia",46.61416735,15.8820496158325
384,1982,Bengkulu,Indonesia,ID,"Bengkulu, Indonesia",-3.5186763,102.5359834
385,6421,Bengo,Angola,AO,"Bengo, Angola",-8.3196672,13.8656195
386,3651,Benguela,Angola,AO,"Benguela, Angola",-12.9104657,14.0356608
387,16324,Benguet,Philippines,PH,"Benguet, Philippines",16.52,120.69
388,13551,Benue,Nigeria,NG,"Benue, Nigeria",7.3505747,8.7772877
389,43420,Beograd,Serbia,RS,"Beograd, Serbia",44.8178131,20.4568974
390,11013,Beočin,Serbia,RS,"Beočin, Serbia",45.2099153,19.7209347
391,10701,Berane,Montenegro,ME,"Berane, Montenegro",42.846826,19.8740451
392,43693,Berat,Albania,AL,"Berat, Albania",40.7018636,19.9580758
393,24611,Berea,Lesotho,LS,"Berea, Lesotho",-29.1963971,27.9175581
394,159,Berlin,Germany,DE,"Berlin, Germany",52.5170365,13.3888599
395,31528,Bern,Switzerland,CH,"Bern, Switzerland",46.9484742,7.4521749
396,11260,Berovo,Macedonia,MK,"Berovo, Macedonia",41.706668,22.8535559
397,16337,Bexley,United Kingdom,GB,"Bexley, United Kingdom",51.4416793,0.150488
398,10594,Beyləqan,Azerbaijan,AZ,"Beyləqan, Azerbaijan",39.86978885,47.6347111167772
399,805,Beyrouth,Lebanon,LB,"Beyrouth, Lebanon",33.88922645,35.5025585289523
400,7882,Bečej,Serbia,RS,"Bečej, Serbia",45.6153745,20.0490085
401,40156,Bihor,Romania,RO,"Bihor, Romania",46.99268995,22.1927520170482
402,36887,Bihār,India,IN,"Bihār, India",25.6440845,85.906508
403,9960,Bijelo Polje,Montenegro,ME,"Bijelo Polje, Montenegro",43.0341595,19.7473559
404,25329,Bilecik,Turkey,TR,"Bilecik, Turkey",40.1435101,29.9752911
405,6961,Biliran,Philippines,PH,"Biliran, Philippines",11.6,124.49
406,9070,Biləsuvar,Azerbaijan,AZ,"Biləsuvar, Azerbaijan",39.5243298,48.4771152356617
407,42752,Bingöl,Turkey,TR,"Bingöl, Turkey",39.073803,40.7296181
408,21399,Biobío,Chile,CL,"Biobío, Chile",-37.3391407,-72.4106825
409,831,Bioko Norte,Equatorial Guinea,GQ,"Bioko Norte, Equatorial Guinea",3.6484594,8.7851155
410,11031,Bioko Sur,Equatorial Guinea,GQ,"Bioko Sur, Equatorial Guinea",3.4245254,8.6646092
411,7589,Biombo,Guinea-Bissau,GW,"Biombo, Guinea-Bissau",11.8816758,-15.778449573524
412,11035,Birgu,Malta,MT,"Birgu, Malta",35.8881119,14.5238445
413,8167,Birkirkara,Malta,MT,"Birkirkara, Malta",35.8994547,14.4649578
414,5431,Birmingham,United Kingdom,GB,"Birmingham, United Kingdom",52.4796992,-1.9026911
415,11298,Birštonas,Lithuania,LT,"Birštonas, Lithuania",54.6043509,24.0335131
416,10826,Birżebbuġa,Malta,MT,"Birżebbuġa, Malta",35.8269478,14.5274189
417,10860,Biržai,Lithuania,LT,"Biržai, Lithuania",56.1999121,24.7571107
418,39558,Bishkek,Kyrgyzstan,KG,"Bishkek, Kyrgyzstan",42.8777895,74.6066926
419,3201,Biskra,Algeria,DZ,"Biskra, Algeria",34.7845635,5.81243533441921
420,799,Bissau,Guinea-Bissau,GW,"Bissau, Guinea-Bissau",11.861324,-15.583055
421,11659,Bistrica ob Sotli,Slovenia,SI,"Bistrica ob Sotli, Slovenia",46.0571033,15.6618232
422,36999,Bistriţa-Năsăud,Romania,RO,"Bistriţa-Năsăud, Romania",47.17725475,24.5411591696541
423,15877,Bitlis,Turkey,TR,"Bitlis, Turkey",38.4950867,42.1678372
424,6478,Bitola,Macedonia,MK,"Bitola, Macedonia",41.0316005,21.3302511
425,26386,Bizerte,Tunisia,TN,"Bizerte, Tunisia",37.2720905,9.8708565
426,12865,Bié,Angola,AO,"Bié, Angola",-12.2630485,17.4967812
427,7706,Bjelovarsko-Bilogorska Županija,Croatia,HR,"Bjelovarsko-Bilogorska Županija, Croatia",45.7462142,16.9212335
428,11645,Blace,Serbia,RS,"Blace, Serbia",43.2955155,21.2865967
429,29953,Black River,Mauritius,MU,"Black River, Mauritius",-20.3331919,57.4130226130271
430,4973,Blackburn with Darwen,United Kingdom,GB,"Blackburn with Darwen, United Kingdom",53.69917695,-2.47090009531383
431,8773,Blackpool,United Kingdom,GB,"Blackpool, United Kingdom",53.8179442,-3.0509812
432,30492,Blaenau Gwent,United Kingdom,GB,"Blaenau Gwent, United Kingdom",51.7533711,-3.18484441675063
433,42707,Blagoevgrad,Bulgaria,BG,"Blagoevgrad, Bulgaria",41.750287,23.4873410976235
434,433,Blantyre,Malawi,MW,"Blantyre, Malawi",-15.7862543,35.0035694
435,11182,Bled,Slovenia,SI,"Bled, Slovenia",46.3684202,14.1100595
436,25749,Blekinge,Sweden,SE,"Blekinge, Sweden",56.12401225,15.4022087518777
437,17617,Blida,Algeria,DZ,"Blida, Algeria",36.4705658,2.8274937
438,11616,Bloke,Slovenia,SI,"Bloke, Slovenia",45.78689875,14.498602920815
439,3488,Blue Nile,Sudan,SD,"Blue Nile, Sudan",15.6082322,32.5083496
440,11088,Boa Vista,Cabo Verde,CV,"Boa Vista, Cabo Verde",16.099509,-22.8009410963036
441,22049,Boaco,Nicaragua,NI,"Boaco, Nicaragua",12.2551759,-85.7230286507701
442,9964,Bobonaro,Timor-Leste,TL,"Bobonaro, Timor-Leste",-8.974555,125.230650522918
443,34378,Bocas del Toro,Panama,PA,"Bocas del Toro, Panama",9.3040623,-82.1284815497846
444,11085,Bogatić,Serbia,RS,"Bogatić, Serbia",44.8343025,19.4795213
445,11311,Bogdanci,Macedonia,MK,"Bogdanci, Macedonia",41.201607,22.577652
446,63,Bogotá,Colombia,CO,"Bogotá, Colombia",4.6529539,-74.0835643
447,11689,Bogovinje,Macedonia,MK,"Bogovinje, Macedonia",41.9249545,20.914348
448,11397,Bohinj,Slovenia,SI,"Bohinj, Slovenia",46.30203365,13.9090155363461
449,18599,Bohol,Philippines,PH,"Bohol, Philippines",9.833333,124.1615579
450,11686,Bojnik,Serbia,RS,"Bojnik, Serbia",43.012738,21.7213107
451,9482,Bokèo,Laos,LA,"Bokèo, Laos",20.317445,100.3958112
452,32055,Boké,Guinea,GN,"Boké, Guinea",11.3406898,-13.9440724
453,11185,Bolama/Bijagós,Guinea-Bissau,GW,"Bolama/Bijagós, Guinea-Bissau",11.27950645,-16.0294424760492
454,8513,Bolikhamxai,Laos,LA,"Bolikhamxai, Laos",18.5806594,104.1491594
455,11674,Boljevac,Serbia,RS,"Boljevac, Serbia",43.8304776,21.9587438
456,8365,Bolton,United Kingdom,GB,"Bolton, United Kingdom",53.5782863,-2.4300367
457,3210,Bolu,Turkey,TR,"Bolu, Turkey",40.6212099,31.6460259
458,4933,Bolívar,Colombia,CO,"Bolívar, Colombia",9.3660477,-74.8023636
459,8969,Bolívar,Ecuador,EC,"Bolívar, Ecuador",-1.5392733,-79.0816505
460,17171,Bolívar,Venezuela,VE,"Bolívar, Venezuela",6.0383525,-63.4543943772571
461,13223,Bomet,Kenya,KE,"Bomet, Kenya",-0.7196054,35.2399625010428
462,10453,Bomi,Liberia,LR,"Bomi, Liberia",6.7177856,-10.7881766
463,10833,Bonaire,"Bonaire, Sint Eustatius, and Saba",BQ,"Bonaire, Bonaire, Sint Eustatius, and Saba",,
464,7434,Bong,Liberia,LR,"Bong, Liberia",6.9622195,-9.7134459
465,5776,Bono East,Ghana,GH,"Bono East, Ghana",7.8035236,-1.0876492
466,3170,Bono,Ghana,GH,"Bono, Ghana",10.4032142,-2.7020869
467,44584,Boquerón,Paraguay,PY,"Boquerón, Paraguay",-22.6643064,-61.0015877
468,8107,Bor,Serbia,RS,"Bor, Serbia",44.0778456,22.0991779
469,9871,Bordj Badji Mokhtar,Algeria,DZ,"Bordj Badji Mokhtar, Algeria",22.62614605,0.127581685078615
470,3752,Bordj Bou Arréridj,Algeria,DZ,"Bordj Bou Arréridj, Algeria",36.09620285,4.66027423453961
471,43780,Borgarbyggð,Iceland,IS,"Borgarbyggð, Iceland",64.704277,-21.220506244606
472,11034,Borgo Maggiore,San Marino,SM,"Borgo Maggiore, San Marino",43.9411865,12.447422
473,26698,Borgou,Benin,BJ,"Borgou, Benin",9.7097453,2.7422648
474,7353,Borkou,Chad,TD,"Borkou, Chad",17.2658129,18.3695288
475,10784,Bormla,Malta,MT,"Bormla, Malta",35.8825817,14.522721
476,642,Borno,Nigeria,NG,"Borno, Nigeria",12.1875392,13.3080034
477,11300,Borovnica,Slovenia,SI,"Borovnica, Slovenia",45.9194745,14.3637139
478,37216,Borsod-Abaúj-Zemplén,Hungary,HU,"Borsod-Abaúj-Zemplén, Hungary",48.2397936,21.1353474
479,11740,Bosilegrad,Serbia,RS,"Bosilegrad, Serbia",42.4996561,22.4732689
480,11486,Bosilovo,Macedonia,MK,"Bosilovo, Macedonia",41.4410377,22.7280638
481,5457,"Bosnia and Herzegovina, Federation of",Bosnia and Herzegovina,BA,"Bosnia and Herzegovina, Federation of, Bosnia and Herzegovina",43.8544557,18.4026968287963
482,38916,Botoşani,Romania,RO,"Botoşani, Romania",47.8528263,26.7593339801484
483,35916,Boucle du Mouhoun,Burkina Faso,BF,"Boucle du Mouhoun, Burkina Faso",12.4777805,-3.58795713101245
484,25711,Bouenza,Congo (Brazzaville),CG,"Bouenza, Congo (Brazzaville)",-4.2868653,13.3972129
485,11787,Bougainville,Papua New Guinea,PG,"Bougainville, Papua New Guinea",-6.1441283,155.205933922914
486,39188,Bouira,Algeria,DZ,"Bouira, Algeria",36.2316481,3.90825791910113
487,20320,Boumerdes,Algeria,DZ,"Boumerdes, Algeria",36.7358032,3.61630457005853
488,18649,Bourgogne-Franche-Comté,France,FR,"Bourgogne-Franche-Comté, France",47.0510946,5.0740568
489,11435,Bovec,Slovenia,SI,"Bovec, Slovenia",46.3385847,13.552419
490,4832,Boyacá,Colombia,CO,"Boyacá, Colombia",5.6278979,-72.8268617
491,10588,Bracknell Forest,United Kingdom,GB,"Bracknell Forest, United Kingdom",51.4002688,-0.741788801141304
492,9120,Bradford,United Kingdom,GB,"Bradford, United Kingdom",53.7944229,-1.7519186
493,34061,Braga,Portugal,PT,"Braga, Portugal",41.5510583,-8.4280045
494,42663,Bragança,Portugal,PT,"Bragança, Portugal",41.5084468,-6.77330236053307
495,9968,Brakna,Mauritania,MR,"Brakna, Mauritania",17.2475638,-13.4037714
496,20678,Brandenburg,Germany,DE,"Brandenburg, Germany",52.8455492,13.2461296
497,11644,Braslovče,Slovenia,SI,"Braslovče, Slovenia",46.286431,15.0405882
498,22595,Bratislava,Slovakia,SK,"Bratislava, Slovakia",48.15926025,17.1396586914217
499,11767,Brava,Cabo Verde,CV,"Brava, Cabo Verde",14.85194265,-24.7086939090331
500,446,Brazzaville,Congo (Brazzaville),CG,"Brazzaville, Congo (Brazzaville)",-4.1875125,15.262788
501,23593,Braşov,Romania,RO,"Braşov, Romania",45.6525105,25.6105654
502,7732,Brcko District,Bosnia and Herzegovina,BA,"Brcko District, Bosnia and Herzegovina",44.84375945,18.7984108840539
503,11585,Brda,Slovenia,SI,"Brda, Slovenia",46.0162019,13.5489102336195
504,5298,Bremen,Germany,DE,"Bremen, Germany",53.0758196,8.8071646
505,5600,Brent,United Kingdom,GB,"Brent, United Kingdom",52.608077,-1.6745079
506,33643,Brestskaya Voblasts’,Belarus,BY,"Brestskaya Voblasts’, Belarus",,
507,32750,Bretagne,France,FR,"Bretagne, France",48.2640845,-2.9202408
508,11256,Brezovica,Slovenia,SI,"Brezovica, Slovenia",45.9480324,14.4180336350525
509,11066,Brežice,Slovenia,SI,"Brežice, Slovenia",45.9038696,15.5930859
510,11047,Briceni,Moldova,MD,"Briceni, Moldova",48.3613276,27.0849008
511,9323,Bridgend,United Kingdom,GB,"Bridgend, United Kingdom",51.5049859,-3.5756674
512,9746,Brighton and Hove,United Kingdom,GB,"Brighton and Hove, United Kingdom",50.8453169,-0.149746897890295
513,1404,"Bristol, City of",United Kingdom,GB,"Bristol, City of, United Kingdom",51.4538022,-2.5972985
514,27820,British Columbia,Canada,CA,"British Columbia, Canada",55.001251,-125.002441
515,6985,Brodsko-Posavska Županija,Croatia,HR,"Brodsko-Posavska Županija, Croatia",45.1613948,17.8254972
516,11007,Brokopondo,Suriname,SR,"Brokopondo, Suriname",4.68516435,-55.0610929508552
517,7258,Bromley,United Kingdom,GB,"Bromley, United Kingdom",51.36685695,0.061709076090817
518,39815,Brunei dan Muara,Brunei,BN,"Brunei dan Muara, Brunei",4.92417845,114.927478269691
519,11484,Brus,Serbia,RS,"Brus, Serbia",43.3843467,21.0313889
520,34356,Brussels-Capital Region,Belgium,BE,"Brussels-Capital Region, Belgium",50.83879505,4.37530413225619
521,11629,Brvenica,Macedonia,MK,"Brvenica, Macedonia",41.9661724,20.9804941
522,1814,Bryanskaya Oblast’,Russia,RU,"Bryanskaya Oblast’, Russia",47.2709194,39.7957343
523,39604,Brăila,Romania,RO,"Brăila, Romania",45.2716092,27.9742932
524,9326,Bubanza,Burundi,BI,"Bubanza, Burundi",-3.1112787,29.3828358
525,24518,Buckinghamshire,United Kingdom,GB,"Buckinghamshire, United Kingdom",51.7834994,-0.894644053564979
526,434,Bucureşti,Romania,RO,"Bucureşti, Romania",44.4361414,26.1027202
527,22360,Budaka,Uganda,UG,"Budaka, Uganda",1.06581895,34.0208930566292
528,264,Budapest,Hungary,HU,"Budapest, Hungary",47.4978789,19.0402383
529,10868,Bududa,Uganda,UG,"Bududa, Uganda",1.02724165,34.3907986656271
530,9471,Budva,Montenegro,ME,"Budva, Montenegro",42.28847115,18.8409557277804
531,39454,Bueng Kan,Thailand,TH,"Bueng Kan, Thailand",18.2329562,103.8267114
532,6340,Buenos Aires,Argentina,AR,"Buenos Aires, Argentina",-34.6037181,-58.38153
533,6217,"Buenos Aires, Ciudad Autónoma de",Argentina,AR,"Buenos Aires, Ciudad Autónoma de, Argentina",-34.6037181,-58.38153
534,7734,Bugiri,Uganda,UG,"Bugiri, Uganda",0.520721,33.7750698252606
535,11625,Bugweri,Uganda,UG,"Bugweri, Uganda",0.62425635,33.6154383214977
536,11654,Buhweju,Uganda,UG,"Buhweju, Uganda",-0.3203212,30.3162054315263
537,5220,Buikwe,Uganda,UG,"Buikwe, Uganda",0.3031612,33.0390868316908
538,11842,Bujanovac,Serbia,RS,"Bujanovac, Serbia",42.4598455,21.7671276
539,701,Bujumbura Mairie,Burundi,BI,"Bujumbura Mairie, Burundi",-3.3493959,29.3631843
540,11504,Bujumbura Rural,Burundi,BI,"Bujumbura Rural, Burundi",-3.4759817,29.4535702
541,10269,Bukedea,Uganda,UG,"Bukedea, Uganda",1.37070475,34.1424762193131
542,16546,Bukidnon,Philippines,PH,"Bukidnon, Philippines",8.022778,124.998611
543,10863,Bukomansimbi,Uganda,UG,"Bukomansimbi, Uganda",-0.12687035,31.6225951783498
544,11540,Bukwo,Uganda,UG,"Bukwo, Uganda",1.2549848,34.6924324354727
545,20925,Bulacan,Philippines,PH,"Bulacan, Philippines",15,121.083333
546,11588,Bulambuli,Uganda,UG,"Bulambuli, Uganda",1.34949885,34.2760948579718
547,1260,Bulawayo,Zimbabwe,ZW,"Bulawayo, Zimbabwe",-20.1053948,28.5426856
548,10578,Bulgan,Mongolia,MN,"Bulgan, Mongolia",48.9521438,103.3965591
549,10905,Buliisa,Uganda,UG,"Buliisa, Uganda",1.92285635,31.3917565190673
550,11097,Bumthang,Bhutan,BT,"Bumthang, Bhutan",27.70791325,90.7697435291263
551,8900,Bundibugyo,Uganda,UG,"Bundibugyo, Uganda",0.6605936,30.0431007740151
552,6907,Bungoma,Kenya,KE,"Bungoma, Kenya",0.78292445,34.719168107319
553,10339,Bunyangabu,Uganda,UG,"Bunyangabu, Uganda",0.47841935,30.2027698891072
554,24264,Burdur,Turkey,TR,"Burdur, Turkey",37.5183407,30.1691254
555,32395,Burgas,Bulgaria,BG,"Burgas, Bulgaria",42.444553,27.2082645346582
556,10156,Burgenland,Austria,AT,"Burgenland, Austria",47.5000001,16.4166666
557,24929,Buri Ram,Thailand,TH,"Buri Ram, Thailand",14.9955693,103.1079187
558,1274,Bursa,Turkey,TR,"Bursa, Turkey",40.182737,29.0675481
559,11195,Bururi,Burundi,BI,"Bururi, Burundi",-3.8581592,29.584379
560,7963,Bury,United Kingdom,GB,"Bury, United Kingdom",53.5927543,-2.2972827
561,37693,Buryatiya,Russia,RU,"Buryatiya, Russia",52.7182426,109.492143
562,221,Busan,South Korea,KR,"Busan, South Korea",35.1799528,129.0752365
563,33527,Busia,Kenya,KE,"Busia, Kenya",0.3712048,34.2647952060832
564,6511,Busia,Uganda,UG,"Busia, Uganda",0.3917103,34.0160135343642
565,8921,Butaleja,Uganda,UG,"Butaleja, Uganda",0.86124775,33.8779637341611
566,10025,Butambala,Uganda,UG,"Butambala, Uganda",0.16426525,32.1352370732013
567,11612,Butebo,Uganda,UG,"Butebo, Uganda",1.1923861,33.8904092
568,10866,Butha-Buthe,Lesotho,LS,"Butha-Buthe, Lesotho",-28.8029541,28.5638395
569,1942,Butuan,Philippines,PH,"Butuan, Philippines",8.9483324,125.5369442
570,11843,Buvuma,Uganda,UG,"Buvuma, Uganda",-0.3113927,33.1978060253448
571,34765,Buxoro,Uzbekistan,UZ,"Buxoro, Uzbekistan",39.7675529,64.4231326
572,9042,Buyende,Uganda,UG,"Buyende, Uganda",1.235238,33.1703533244419
573,18855,Buzău,Romania,RO,"Buzău, Romania",45.26925815,26.7748172789942
574,28146,Bà Rịa-Vũng Tàu,Vietnam,VN,"Bà Rịa-Vũng Tàu, Vietnam",10.5738801,107.3284362
575,3463,Bács-Kiskun,Hungary,HU,"Bács-Kiskun, Hungary",46.5809294,19.5128532
576,43645,Béchar,Algeria,DZ,"Béchar, Algeria",31.385726,-2.0115958479874
577,33414,Béja,Tunisia,TN,"Béja, Tunisia",36.74623035,9.20323283692006
578,41238,Békés,Hungary,HU,"Békés, Hungary",46.7862993,20.9820736
579,10813,Béni Abbès,Algeria,DZ,"Béni Abbès, Algeria",29.083202,-2.65900601043017
580,38623,Béni Mellal-Khénifra,Morocco,MA,"Béni Mellal-Khénifra, Morocco",32.6407498,-6.207105
581,5395,Béqaa,Lebanon,LB,"Béqaa, Lebanon",33.6746204,35.8333756711271
582,1651,Bình Dương,Vietnam,VN,"Bình Dương, Vietnam",11.1836551,106.7031737
583,5706,Bình Phước,Vietnam,VN,"Bình Phước, Vietnam",11.7543232,106.9266473
584,5367,Bình Thuận,Vietnam,VN,"Bình Thuận, Vietnam",11.1041572,108.1832931
585,2266,Bình Định,Vietnam,VN,"Bình Định, Vietnam",14.0779378,108.9898798
586,12663,Bābil,Iraq,IQ,"Bābil, Iraq",32.6319335,44.5629362
587,6783,Bādghīs,Afghanistan,AF,"Bādghīs, Afghanistan",35,63.75
588,6249,Bāgmatī,Nepal,NP,"Bāgmatī, Nepal",27.7733295,85.6801414
589,40818,Bāmyān,Afghanistan,AF,"Bāmyān, Afghanistan",34.75,67.25
590,5757,Bălţi,Moldova,MD,"Bălţi, Moldova",47.7623952,27.9286022
591,8375,Bīnshangul Gumuz,Ethiopia,ET,"Bīnshangul Gumuz, Ethiopia",,
592,1496,Būr Sa‘īd,Egypt,EG,"Būr Sa‘īd, Egypt",31.1821275,32.3725819650013
593,2974,Būshehr,Iran,IR,"Būshehr, Iran",28.9310786,50.8458443
594,7813,Bərdə,Azerbaijan,AZ,"Bərdə, Azerbaijan",40.361006,47.2013472921232
595,35795,Bạc Liêu,Vietnam,VN,"Bạc Liêu, Vietnam",9.3298341,105.509946
596,3221,Bắc Giang,Vietnam,VN,"Bắc Giang, Vietnam",21.3169625,106.437985
597,7464,Bắc Kạn,Vietnam,VN,"Bắc Kạn, Vietnam",22.2571701,105.8204437
598,1489,Bắc Ninh,Vietnam,VN,"Bắc Ninh, Vietnam",21.0955822,106.1264766
599,4851,Bến Tre,Vietnam,VN,"Bến Tre, Vietnam",10.1093637,106.4811559
600,18769,Caaguazú,Paraguay,PY,"Caaguazú, Paraguay",-25.333333,-55.833333
601,27959,Caazapá,Paraguay,PY,"Caazapá, Paraguay",-26.166667,-56
602,43924,Cabañas,El Salvador,SV,"Cabañas, El Salvador",13.88329145,-88.7383095998344
603,1137,Cabinda,Angola,AO,"Cabinda, Angola",-5.056395,12.3211749
604,20020,Cabo Delgado,Mozambique,MZ,"Cabo Delgado, Mozambique",-12.4254942,39.4168743
605,11143,Cacheu,Guinea-Bissau,GW,"Cacheu, Guinea-Bissau",12.274246,-16.1648911
606,42761,Caerphilly,United Kingdom,GB,"Caerphilly, United Kingdom",51.6723809,-3.17839377287632
607,18587,Cagayan,Philippines,PH,"Cagayan, Philippines",18,121.833333
608,1148,Cagayan de Oro,Philippines,PH,"Cagayan de Oro, Philippines",8.4756417,124.6421532
609,8406,Cahul,Moldova,MD,"Cahul, Moldova",45.9044087,28.1946583
610,3261,Cajamarca,Peru,PE,"Cajamarca, Peru",-6.25,-78.833333
611,26819,Calabria,Italy,IT,"Calabria, Italy",39.0565974,16.5249864
612,35472,Caldas,Colombia,CO,"Caldas, Colombia",5.3302514,-75.2873471
613,12309,Calderdale,United Kingdom,GB,"Calderdale, United Kingdom",53.7204748,-1.96228863296767
614,19883,California,United States,US,"California, United States",36.7014631,-118.755997
615,675,Callao,Peru,PE,"Callao, Peru",-12.066667,-77.15
616,6663,Caloocan,Philippines,PH,"Caloocan, Philippines",14.651348,120.9724002
617,19961,Camagüey,Cuba,CU,"Camagüey, Cuba",21.3791765,-77.9183681
618,21150,Camarines Norte,Philippines,PH,"Camarines Norte, Philippines",14.166667,122.75
619,11805,Camarines Sur,Philippines,PH,"Camarines Sur, Philippines",13.6428216,123.3282338
620,9570,Cambridgeshire,United Kingdom,GB,"Cambridgeshire, United Kingdom",52.333333,0.083333
621,8744,Camden,United Kingdom,GB,"Camden, United Kingdom",51.54279655,-0.16248031357799
622,27995,Camiguin,Philippines,PH,"Camiguin, Philippines",9.1739753,124.7256992
623,40195,Campania,Italy,IT,"Campania, Italy",40.860672,14.843984
624,10223,Campeche,Mexico,MX,"Campeche, Mexico",19,-90.5
625,41906,Canary Islands,Spain,ES,"Canary Islands, Spain",28.2935785,-16.6214471211441
626,24577,Canelones,Uruguay,UY,"Canelones, Uruguay",-34.6222482,-55.9903797
627,11235,Canillo,Andorra,AD,"Canillo, Andorra",42.5668305,1.5977647
628,44549,Canindeyú,Paraguay,PY,"Canindeyú, Paraguay",-24.25,-55.25
629,11607,Cankova,Slovenia,SI,"Cankova, Slovenia",46.7184838,16.018699
630,11254,Cankuzo,Burundi,BI,"Cankuzo, Burundi",-3.1450876,30.5898699852872
631,10806,Cantabria,Spain,ES,"Cantabria, Spain",43.1595664,-4.0878382
632,10859,Cantagalo,Sao Tome and Principe,ST,"Cantagalo, Sao Tome and Principe",0.2294719,6.68072787444808
633,41515,Cantemir,Moldova,MD,"Cantemir, Moldova",46.2797499,28.1988444
634,1899,Canterbury,New Zealand,NZ,"Canterbury, New Zealand",-43.49417615,171.809844758415
635,6492,Cao Bằng,Vietnam,VN,"Cao Bằng, Vietnam",22.7426936,106.1060926
636,11365,Capellen,Luxembourg,LU,"Capellen, Luxembourg",49.645432,5.97732470394558
637,21102,Capiz,Philippines,PH,"Capiz, Philippines",11.3852987,122.6377315
638,37871,Caquetá,Colombia,CO,"Caquetá, Colombia",1.1153385,-74.1056838
639,3305,Carabobo,Venezuela,VE,"Carabobo, Venezuela",10.2151045,-68.0408024408378
640,20685,Carazo,Nicaragua,NI,"Carazo, Nicaragua",11.6619985,-86.3125696541941
641,37156,Caraş-Severin,Romania,RO,"Caraş-Severin, Romania",45.12713445,22.0771444775567
642,7119,Carchi,Ecuador,EC,"Carchi, Ecuador",0.8375163,-78.2075154
643,1606,Cardiff,United Kingdom,GB,"Cardiff, United Kingdom",51.4816546,-3.1791934
644,8920,Carlow,Ireland,IE,"Carlow, Ireland",52.69078865,-6.82514515084491
645,9848,Carmarthenshire,United Kingdom,GB,"Carmarthenshire, United Kingdom",51.89366985,-4.21728272142993
646,25743,Cartago,Costa Rica,CR,"Cartago, Costa Rica",9.8159326,-83.6942821049087
647,42431,Casablanca-Settat,Morocco,MA,"Casablanca-Settat, Morocco",33.2627128,-7.9639028
648,43562,Casanare,Colombia,CO,"Casanare, Colombia",5.5000085,-71.5000086
649,36997,Cascades,Burkina Faso,BF,"Cascades, Burkina Faso",10.30718125,-4.4351893203504
650,20691,Castelo Branco,Portugal,PT,"Castelo Branco, Portugal",39.97675825,-7.4460599299667
651,20271,Castille-La Mancha,Spain,ES,"Castille-La Mancha, Spain",39.4177902,-2.6232332
652,14235,Castille-Leon,Spain,ES,"Castille-Leon, Spain",41.55005,-5.1387401
653,852,Castries,Saint Lucia,LC,"Castries, Saint Lucia",14.0095966,-60.9902359
654,7024,Catalonia,Spain,ES,"Catalonia, Spain",41.8523094,1.5745043
655,35520,Catamarca,Argentina,AR,"Catamarca, Argentina",-27.1910825,-67.105374
656,43259,Catanduanes,Philippines,PH,"Catanduanes, Philippines",13.833333,124.25
657,20107,Cauca,Colombia,CO,"Cauca, Colombia",2.715645,-76.662665
658,11261,Caué,Sao Tome and Principe,ST,"Caué, Sao Tome and Principe",0.14405055,6.59259231196715
659,10705,Cavan,Ireland,IE,"Cavan, Ireland",54.03497495,-7.29370228255837
660,23241,Cavite,Philippines,PH,"Cavite, Philippines",14.2554073,120.8671503
661,873,Cayo,Belize,BZ,"Cayo, Belize",17.1582776,-89.0681672
662,18516,Cañar,Ecuador,EC,"Cañar, Ecuador",-2.574484,-78.9804678
663,26123,Ceará,Brazil,BR,"Ceará, Brazil",-5.3264703,-39.7156073
664,12392,Cebu,Philippines,PH,"Cebu, Philippines",10.2931062,123.9020773
665,7769,Celje,Slovenia,SI,"Celje, Slovenia",46.2293889,15.2616828
666,11610,Centar Župa,Macedonia,MK,"Centar Župa, Macedonia",41.4789089,20.5589911
667,18318,Central,Botswana,BW,"Central, Botswana",-21.4790187,26.2154174
668,7719,Central Bedfordshire,United Kingdom,GB,"Central Bedfordshire, United Kingdom",51.99803275,-0.47915142854056
669,8648,Central Darfur,Sudan,SD,"Central Darfur, Sudan",12.1297093,23.3541686607301
670,3506,Central Equatoria,South Sudan,SS,"Central Equatoria, South Sudan",5,31.5
671,31428,Central,Ghana,GH,"Central, Ghana",5.7244148,-1.3761749
672,5626,Central,Israel,IL,"Central, Israel",-25.3722258,-57.5754022
673,10481,Central,Sri Lanka,LK,"Central, Sri Lanka",7.381949,80.723427986029
674,44627,Central,Papua New Guinea,PG,"Central, Papua New Guinea",-10,148
675,5923,Central,Paraguay,PY,"Central, Paraguay",-25.5,-57.5
676,44354,Central River,The Gambia,GM,"Central River, The Gambia",13.57507385,-14.779714697602
677,11386,Central,Solomon Islands,SB,"Central, Solomon Islands",-8.9833335,159.75
678,5154,Central,Zambia,ZM,"Central, Zambia",-14.183507,29.0375543
679,5371,Centrale,Togo,TG,"Centrale, Togo",8.607113,1.04585536693924
680,16555,Centre,Burkina Faso,BF,"Centre, Burkina Faso",12.36732,-1.5430869129979
681,344,Centre,Cameroon,CM,"Centre, Cameroon",4.686267,11.9414512
682,16608,Centre,Haiti,HT,"Centre, Haiti",18.9908235,-71.9943985
683,11851,Centre-Est,Burkina Faso,BF,"Centre-Est, Burkina Faso",11.734933,-0.292105567747259
684,15043,Centre-Nord,Burkina Faso,BF,"Centre-Nord, Burkina Faso",13.23871,-1.03498315140845
685,19063,Centre-Ouest,Burkina Faso,BF,"Centre-Ouest, Burkina Faso",11.9067933,-2.30448006591646
686,20273,Centre-Sud,Burkina Faso,BF,"Centre-Sud, Burkina Faso",11.5833646,-1.05563005807453
687,40650,Centre-Val de Loire,France,FR,"Centre-Val de Loire, France",47.5490251,1.7324062
688,10949,Centro Sur,Equatorial Guinea,GQ,"Centro Sur, Equatorial Guinea",1.3969966,10.4538528
689,32835,Ceredigion,United Kingdom,GB,"Ceredigion, United Kingdom",52.2945764,-3.95278099902914
690,11338,Cerklje na Gorenjskem,Slovenia,SI,"Cerklje na Gorenjskem, Slovenia",46.2525083,14.4872011
691,11222,Cerknica,Slovenia,SI,"Cerknica, Slovenia",45.7936578,14.361883
692,11432,Cerkno,Slovenia,SI,"Cerkno, Slovenia",46.1279639,13.9881168
693,11648,Cerkvenjak,Slovenia,SI,"Cerkvenjak, Slovenia",46.5667393,15.9433755
694,7009,Cerro Largo,Uruguay,UY,"Cerro Largo, Uruguay",-32.333333,-54.333333
695,35093,Cesar,Colombia,CO,"Cesar, Colombia",9.3333415,-73.5000086
696,10282,Cetinje,Montenegro,ME,"Cetinje, Montenegro",42.3915575,18.9149488921266
697,6190,Ceuta,Spain,ES,"Ceuta, Spain",35.888361,-5.304138
698,7727,Chachoengsao,Thailand,TH,"Chachoengsao, Thailand",13.6093192,101.5467201
699,39363,Chaco,Argentina,AR,"Chaco, Argentina",-26.3829647,-60.8816092
700,5200,Chagang,North Korea,KP,"Chagang, North Korea",40.7198536,126.539056
701,5875,Chaguanas,Trinidad and Tobago,TT,"Chaguanas, Trinidad and Tobago",10.5147394,-61.4076757
702,40745,Chahār Maḩāl va Bakhtīārī,Iran,IR,"Chahār Maḩāl va Bakhtīārī, Iran",32.0163307,50.685709
703,10532,Chai Nat,Thailand,TH,"Chai Nat, Thailand",15.1453182,99.9010244
704,30569,Chaiyaphum,Thailand,TH,"Chaiyaphum, Thailand",16.2720349,101.7153824
705,32973,Chalatenango,El Salvador,SV,"Chalatenango, El Salvador",14.0413868,-88.9394082
706,32264,Champasak,Laos,LA,"Champasak, Laos",14.8828473,105.8420794
707,719,Chandīgarh,India,IN,"Chandīgarh, India",30.7334421,76.7797143
708,17463,Changhua,Taiwan,TW,"Changhua, Taiwan",24.0755667,120.5444667
709,8937,Chanthaburi,Thailand,TH,"Chanthaburi, Thailand",12.9081033,102.0159145
710,32187,Chari-Baguirmi,Chad,TD,"Chari-Baguirmi, Chad",11.3345348,16.2884311
711,11702,Chatham Islands,New Zealand,NZ,"Chatham Islands, New Zealand",-43.917534,-176.18734
712,10653,Chattogram,Bangladesh,BD,"Chattogram, Bangladesh",22.333778,91.8344348
713,40787,Chechnya,Russia,RU,"Chechnya, Russia",43.4,45.7
714,17163,Chelyabinskaya Oblast’,Russia,RU,"Chelyabinskaya Oblast’, Russia",54.4223954,61.1865846
715,33119,Cherkaska Oblast,Ukraine,UA,"Cherkaska Oblast, Ukraine",48.8250798,37.3787633
716,37208,Chernihivska Oblast,Ukraine,UA,"Chernihivska Oblast, Ukraine",50.738262,31.3785779
717,32302,Chernivetska Oblast,Ukraine,UA,"Chernivetska Oblast, Ukraine",48.1622417,25.7269453
718,6407,Cheshire East,United Kingdom,GB,"Cheshire East, United Kingdom",53.1673422,-2.29288027786136
719,29994,Cheshire West and Chester,United Kingdom,GB,"Cheshire West and Chester, United Kingdom",53.16379785,-2.72853611354169
720,4573,Chhattīsgarh,India,IN,"Chhattīsgarh, India",21.6637359,81.8406351
721,11778,Chhukha,Bhutan,BT,"Chhukha, Bhutan",27,89.55
722,40348,Chiang Mai,Thailand,TH,"Chiang Mai, Thailand",18.7882778,98.9858802
723,6590,Chiang Rai,Thailand,TH,"Chiang Rai, Thailand",19.7589517,99.6734592
724,10331,Chiapas,Mexico,MX,"Chiapas, Mexico",16.5000001,-92.5000001
725,22358,Chiayi,Taiwan,TW,"Chiayi, Taiwan",23.4591664,120.2930004
726,917,Chiba,Japan,JP,"Chiba, Japan",35.549399,140.2647303
727,11704,Chiesanuova,San Marino,SM,"Chiesanuova, San Marino",43.9053382,12.4220187
728,16235,Chihuahua,Mexico,MX,"Chihuahua, Mexico",28.5000001,-106.0000001
729,11515,Chikwawa,Malawi,MW,"Chikwawa, Malawi",-16.21538195,34.7228393243151
730,12049,Chimaltenango,Guatemala,GT,"Chimaltenango, Guatemala",14.6539748,-90.9272741205314
731,4233,Chimborazo,Ecuador,EC,"Chimborazo, Ecuador",-1.9262626,-78.7297799
732,10703,Chimbu,Papua New Guinea,PG,"Chimbu, Papua New Guinea",-6.25,144.833333
733,8433,Chin State,Myanmar,MM,"Chin State, Myanmar",22.018242,93.5038035
734,22347,Chinandega,Nicaragua,NI,"Chinandega, Nicaragua",12.77779615,-87.2695840480149
735,12991,Chiquimula,Guatemala,GT,"Chiquimula, Guatemala",14.6891037,-89.3960023318448
736,11380,Chiradzulu,Malawi,MW,"Chiradzulu, Malawi",-15.75472,35.2055361705202
737,41311,Chiriquí,Panama,PA,"Chiriquí, Panama",8.3971129,-82.3223443
738,8922,Chitipa,Malawi,MW,"Chitipa, Malawi",-9.9728541,33.41202427957
739,42172,Chişinău,Moldova,MD,"Chişinău, Moldova",47.0245117,28.8322923
740,4021,Chlef,Algeria,DZ,"Chlef, Algeria",36.20342,1.26806960054163
741,10945,Chobe,Botswana,BW,"Chobe, Botswana",-18.39150845,24.7067517615026
742,4701,Chocó,Colombia,CO,"Chocó, Colombia",6.0000085,-77.0000086
743,11457,Choiseul,Solomon Islands,SB,"Choiseul, Solomon Islands",-7.00917555,156.923953191337
744,4132,Choluteca,Honduras,HN,"Choluteca, Honduras",13.2552302,-87.2120342696696
745,23326,Chon Buri,Thailand,TH,"Chon Buri, Thailand",13.1857117,101.1210777
746,29720,Chongqing,China,CN,"Chongqing, China",30.05518,107.8748712
747,37138,Chontales,Nicaragua,NI,"Chontales, Nicaragua",11.9876753,-85.1860926913317
748,5271,Chubut,Argentina,AR,"Chubut, Argentina",-43.7128356,-68.7461817
749,43851,Chukotskiy Avtonomnyy Okrug,Russia,RU,"Chukotskiy Avtonomnyy Okrug, Russia",,
750,37266,Chumphon,Thailand,TH,"Chumphon, Thailand",10.3782724,99.0077685
751,4546,Chungbuk,South Korea,KR,"Chungbuk, South Korea",36.6357,127.4915
752,3770,Chungnam,South Korea,KR,"Chungnam, South Korea",36.6593,126.6729
753,819,Chuquisaca,Bolivia,BO,"Chuquisaca, Bolivia",-19.0477251,-65.2594306
754,11600,Chuuk,Federated States of Micronesia,FM,"Chuuk, Federated States of Micronesia",7.4393793,151.8515538
755,43222,Chuvashiya,Russia,RU,"Chuvashiya, Russia",,
756,36268,Chüy,Kyrgyzstan,KG,"Chüy, Kyrgyzstan",42.55502355,74.6219910357158
757,21248,Cibao Nordeste,Dominican Republic,DO,"Cibao Nordeste, Dominican Republic",19.33804775,-70.1280137514434
758,30368,Cibao Noroeste,Dominican Republic,DO,"Cibao Noroeste, Dominican Republic",19.54032715,-71.303803545099
759,15998,Cibao Norte,Dominican Republic,DO,"Cibao Norte, Dominican Republic",19.47606135,-70.6659603071365
760,24405,Cibao Sur,Dominican Republic,DO,"Cibao Sur, Dominican Republic",19.031056,-70.4253027197758
761,8912,Cibitoke,Burundi,BI,"Cibitoke, Burundi",-2.8477341,29.2616619938218
762,17132,Ciego de Ávila,Cuba,CU,"Ciego de Ávila, Cuba",21.7476686,-78.7295580200464
763,24208,Cienfuegos,Cuba,CU,"Cienfuegos, Cuba",22.1459864,-80.4530775
764,10651,Cimişlia,Moldova,MD,"Cimişlia, Moldova",46.5214777,28.7832993
765,11584,Cirkulane,Slovenia,SI,"Cirkulane, Slovenia",46.343373,15.9949121
766,16171,City of Freeport,The Bahamas,BS,"City of Freeport, The Bahamas",26.535681,-78.6953623
767,9,Ciudad de México,Mexico,MX,"Ciudad de México, Mexico",19.4326296,-99.1331785
768,30010,Clackmannanshire,United Kingdom,GB,"Clackmannanshire, United Kingdom",56.166395,-3.7513968
769,38558,Clare,Ireland,IE,"Clare, Ireland",52.85725745,-8.93743592599454
770,4583,Clarendon,Jamaica,JM,"Clarendon, Jamaica",17.95185255,-77.2719276504815
771,11439,Clervaux,Luxembourg,LU,"Clervaux, Luxembourg",50.0547912,6.0275511
772,2182,Cluj,Romania,RO,"Cluj, Romania",46.769379,23.5899542
773,3692,Coahuila,Mexico,MX,"Coahuila, Mexico",27.3333331,-102.0000001
774,34328,Coast,Tanzania,TZ,"Coast, Tanzania",-6.97943315,39.2886959736856
775,32201,Cochabamba,Bolivia,BO,"Cochabamba, Bolivia",-17.4012458,-66.16756808852
776,15288,Coclé,Panama,PA,"Coclé, Panama",8.4604873,-80.4305652
777,4348,Coimbra,Portugal,PT,"Coimbra, Portugal",40.2111931,-8.4294632
778,31990,Cojedes,Venezuela,VE,"Cojedes, Venezuela",9.30944565,-68.359054624644
779,3425,Colima,Mexico,MX,"Colima, Mexico",19.166667,-104
780,35809,Collines,Benin,BJ,"Collines, Benin",8.1085479,2.1853101
781,37144,Colonia,Uruguay,UY,"Colonia, Uruguay",-34.1664516,-57.4993268
782,13243,Colorado,United States,US,"Colorado, United States",38.7251776,-105.607716
783,21007,Colón,Honduras,HN,"Colón, Honduras",15.71495515,-85.7023583920831
784,18366,Colón,Panama,PA,"Colón, Panama",9.3553005,-79.8974085
785,4330,Comayagua,Honduras,HN,"Comayagua, Honduras",14.5525837,-87.6903154285919
786,11145,Commewijne,Suriname,SR,"Commewijne, Suriname",5.8401198,-54.9244430905508
787,31110,Comoé,Côte d'Ivoire,CI,"Comoé, Côte d'Ivoire",6.0762474,-3.3082115
788,480,Conakry,Guinea,GN,"Conakry, Guinea",9.5170602,-13.6998434
789,19912,Concepción,Paraguay,PY,"Concepción, Paraguay",-23.1775,-57.1675
790,14374,Connecticut,United States,US,"Connecticut, United States",41.6500201,-72.7342163
791,1692,Constantine,Algeria,DZ,"Constantine, Algeria",36.3641642,6.6084281
792,18145,Constanţa,Romania,RO,"Constanţa, Romania",44.1767161,28.6507598
793,9073,Conwy,United Kingdom,GB,"Conwy, United Kingdom",53.1460931,-3.75992015577777
794,4983,Copperbelt,Zambia,ZM,"Copperbelt, Zambia",-13.0214171,27.8876177
795,32537,Copán,Honduras,HN,"Copán, Honduras",14.89586845,-88.9255812100148
796,38179,Coquimbo,Chile,CL,"Coquimbo, Chile",-30.7546652,-70.9005536
797,44533,Cordillera,Paraguay,PY,"Cordillera, Paraguay",-25.25,-57
798,42394,Cork,Ireland,IE,"Cork, Ireland",51.897077,-8.4654674
799,9672,Cornwall,United Kingdom,GB,"Cornwall, United Kingdom",50.4433489,-4.62465658489158
800,11375,Coronie,Suriname,SR,"Coronie, Suriname",5.74685635,-56.2455162117478
801,10976,Corozal,Belize,BZ,"Corozal, Belize",18.2242711,-88.2919438775972
802,23752,Corrientes,Argentina,AR,"Corrientes, Argentina",-28.99565115,-57.8124579666734
803,7228,Corsica,France,FR,"Corsica, France",42.18808965,9.06841377142769
804,4984,Cortés,Honduras,HN,"Cortés, Honduras",15.47840725,-88.0343857525213
805,15646,Costa Caribe Norte,Nicaragua,NI,"Costa Caribe Norte, Nicaragua",14.0296802,-83.382606
806,14961,Costa Caribe Sur,Nicaragua,NI,"Costa Caribe Sur, Nicaragua",12.17932745,-83.7774051249315
807,3835,Cotabato,Philippines,PH,"Cotabato, Philippines",7.27,124.86
808,36084,Cotopaxi,Ecuador,EC,"Cotopaxi, Ecuador",-0.8268521,-78.8937757
809,38805,Couffo,Benin,BJ,"Couffo, Benin",7.1312662,1.7567394
810,35792,Couva/Tabaquite/Talparo,Trinidad and Tobago,TT,"Couva/Tabaquite/Talparo, Trinidad and Tobago",10.4497669,-61.344388125853
811,27130,Covasna,Romania,RO,"Covasna, Romania",45.89667925,26.0101806117457
812,1967,Coventry,United Kingdom,GB,"Coventry, United Kingdom",52.4081812,-1.510477
813,11075,Criuleni,Moldova,MD,"Criuleni, Moldova",47.2095468,29.1580621
814,11632,Crna Trava,Serbia,RS,"Crna Trava, Serbia",42.8095195,22.2990322
815,1770,Cross River,Nigeria,NG,"Cross River, Nigeria",5.8671966,8.5204774
816,9306,Croydon,United Kingdom,GB,"Croydon, United Kingdom",51.3713049,-0.101957
817,24245,Csongrád-Csanád,Hungary,HU,"Csongrád-Csanád, Hungary",46.4515164,20.2277606
818,16714,Cuando Cubango,Angola,AO,"Cuando Cubango, Angola",-16.0457694,19.5621532
819,34115,Cuanza-Norte,Angola,AO,"Cuanza-Norte, Angola",-9.0296752,15.0926324
820,3865,Cuanza-Sul,Angola,AO,"Cuanza-Sul, Angola",-10.7707527,15.0975712
821,10561,Culfa,Azerbaijan,AZ,"Culfa, Azerbaijan",39.14114205,45.694971165667
822,6821,Cumbria,United Kingdom,GB,"Cumbria, United Kingdom",54.6143136,-2.94208994687704
823,33154,Cundinamarca,Colombia,CO,"Cundinamarca, Colombia",5.1096596,-74.0995854
824,5008,Cunene,Angola,AO,"Cunene, Angola",-16.5568536,15.7867319
825,35609,Cuscatlán,El Salvador,SV,"Cuscatlán, El Salvador",13.8586903,-89.0632591544891
826,38821,Cusco,Peru,PE,"Cusco, Peru",-13.5170887,-71.9785356
827,8965,Cuvette,Congo (Brazzaville),CG,"Cuvette, Congo (Brazzaville)",-0.4936855,16.1602013
828,10958,Cuvette-Ouest,Congo (Brazzaville),CG,"Cuvette-Ouest, Congo (Brazzaville)",0.280252,14.5292599
829,9977,Cuyuni-Mazaruni,Guyana,GY,"Cuyuni-Mazaruni, Guyana",6.18885405,-59.8497370496387
830,15656,Cà Mau,Vietnam,VN,"Cà Mau, Vietnam",9.0180177,105.0869724
831,15821,Córdoba,Argentina,AR,"Córdoba, Argentina",-31.4166867,-64.1834193
832,16011,Córdoba,Colombia,CO,"Córdoba, Colombia",8.3344713,-75.6666238
833,10821,Călăraşi,Moldova,MD,"Călăraşi, Moldova",47.2496047,28.313869
834,7781,Călăraşi,Romania,RO,"Călăraşi, Romania",44.1961646,27.3313233
835,9950,Căuşeni,Moldova,MD,"Căuşeni, Moldova",46.6080155,29.4262248636614
836,10135,Cēsis,Latvia,LV,"Cēsis, Latvia",57.3131712,25.2748551
837,11110,Cəbrayıl,Azerbaijan,AZ,"Cəbrayıl, Azerbaijan",39.3188061,46.978554660236
838,40109,Cəlilabad,Azerbaijan,AZ,"Cəlilabad, Azerbaijan",39.23163585,48.4272680180222
839,26830,Cần Thơ,Vietnam,VN,"Cần Thơ, Vietnam",10.0364216,105.7875219
840,342,Daegu,South Korea,KR,"Daegu, South Korea",35.8713,128.6018
841,533,Daejeon,South Korea,KR,"Daejeon, South Korea",36.3497007,127.3849016
842,11487,Dagana,Bhutan,BT,"Dagana, Bhutan",27.0711389,89.820104
843,4940,Dagestan,Russia,RU,"Dagestan, Russia",43,47
844,3607,Dagupan,Philippines,PH,"Dagupan, Philippines",16.043021,120.3337627
845,13275,Dahūk,Iraq,IQ,"Dahūk, Iraq",36.8542598,42.9924528
846,15177,Dakar,Senegal,SN,"Dakar, Senegal",14.693425,-17.447938
847,5664,Dakhla-Oued Ed-Dahab,Morocco,MA,"Dakhla-Oued Ed-Dahab, Morocco",23.28371,-15.0202622
848,5075,Dakhlet Nouadhibou,Mauritania,MR,"Dakhlet Nouadhibou, Mauritania",20.8019537,-16.0012708
849,34385,Dalarna,Sweden,SE,"Dalarna, Sweden",61.06037785,14.2150873169591
850,11165,Danilovgrad,Montenegro,ME,"Danilovgrad, Montenegro",42.5475928,19.1070758756254
851,64,Dar es Salaam,Tanzania,TZ,"Dar es Salaam, Tanzania",-6.8160837,39.2803583
852,6464,Darhan-Uul,Mongolia,MN,"Darhan-Uul, Mongolia",49.3767291,106.2901384
853,11230,Darién,Panama,PA,"Darién, Panama",8.2158991,-78.0172551
854,6026,Darlington,United Kingdom,GB,"Darlington, United Kingdom",54.5242081,-1.5555812
855,35798,Darnah,Libya,LY,"Darnah, Libya",32.7593795,22.6383195
856,19342,Dar‘ā,Syria,SY,"Dar‘ā, Syria",32.6224342,36.1109696
857,5141,Davao Occidental,Philippines,PH,"Davao Occidental, Philippines",6.27,125.6
858,4256,Davao Oriental,Philippines,PH,"Davao Oriental, Philippines",7.166667,126.333333
859,453,Davao,Philippines,PH,"Davao, Philippines",7.0648306,125.6080623
860,16045,Davao de Oro,Philippines,PH,"Davao de Oro, Philippines",7.45,126.07
861,10188,Davao del Norte,Philippines,PH,"Davao del Norte, Philippines",7.6179228,125.6832687
862,14002,Davao del Sur,Philippines,PH,"Davao del Sur, Philippines",6.6983658,125.3612135
863,2526,Dayr az Zawr,Syria,SY,"Dayr az Zawr, Syria",35.3333335,40.1499999
864,10831,Daşkəsən,Azerbaijan,AZ,"Daşkəsən, Azerbaijan",40.475196,46.0150679979258
865,30455,Daşoguz,Turkmenistan,TM,"Daşoguz, Turkmenistan",41.3862117,58.5586047
866,10171,Debar,Macedonia,MK,"Debar, Macedonia",41.523466,20.5269779
867,11630,Debarca,Macedonia,MK,"Debarca, Macedonia",41.3582564,21.5485231
868,8529,Debub,Eritrea,ER,"Debub, Eritrea",14.9099667,38.8150692
869,37484,Debubawi K’eyyĭḥ Baḥri,Eritrea,ER,"Debubawi K’eyyĭḥ Baḥri, Eritrea",,
870,8180,Dedza,Malawi,MW,"Dedza, Malawi",-14.2374479,34.319651439664
871,33400,Delaware,United States,US,"Delaware, United States",38.6920451,-75.4013315
872,1802,Delhi,India,IN,"Delhi, India",28.6273928,77.1716954
873,6220,Delta Amacuro,Venezuela,VE,"Delta Amacuro, Venezuela",8.9375384,-61.3395657853568
874,2770,Delta,Nigeria,NG,"Delta, Nigeria",5.5273061,6.1784167
875,11302,Delčevo,Macedonia,MK,"Delčevo, Macedonia",41.9668344,22.7767722
876,829,Demerara-Mahaica,Guyana,GY,"Demerara-Mahaica, Guyana",6.45478835,-58.1280675672382
877,11599,Demir Hisar,Macedonia,MK,"Demir Hisar, Macedonia",41.2198967,21.2020872
878,11286,Demir Kapija,Macedonia,MK,"Demir Kapija, Macedonia",41.4087136,22.2418571
879,8312,Denbighshire,United Kingdom,GB,"Denbighshire, United Kingdom",53.1097895,-3.36712840268463
880,31850,Denguélé,Côte d'Ivoire,CI,"Denguélé, Côte d'Ivoire",9.6380415,-7.3900097
881,14261,Denizli,Turkey,TR,"Denizli, Turkey",37.7827875,29.0966476
882,34652,Derby,United Kingdom,GB,"Derby, United Kingdom",52.9142235,-1.47198854612661
883,43003,Derbyshire,United Kingdom,GB,"Derbyshire, United Kingdom",53.1185033,-1.55661793058722
884,12503,Derry and Strabane,United Kingdom,GB,"Derry and Strabane, United Kingdom",54.8351485,-7.45799479064039
885,11604,Despotovac,Serbia,RS,"Despotovac, Serbia",44.0954702,21.4366052
886,11617,Destrnik,Slovenia,SI,"Destrnik, Slovenia",46.4916517,15.8794141
887,32097,Devon,United Kingdom,GB,"Devon, United Kingdom",50.7241405,-3.66077881614107
888,11247,Deçan,Kosovo,XK,"Deçan, Kosovo",42.5402266,20.2882372
889,2553,Dhaka,Bangladesh,BD,"Dhaka, Bangladesh",23.7644025,90.389015
890,22701,Dhamār,Yemen,YE,"Dhamār, Yemen",14.7384268,44.2709597
891,2666,Dhī Qār,Iraq,IQ,"Dhī Qār, Iraq",31.2857941,46.3068347
892,37283,Dibër,Albania,AL,"Dibër, Albania",41.62219195,20.1808160372861
893,8739,Diego Martin,Trinidad and Tobago,TT,"Diego Martin, Trinidad and Tobago",10.71385965,-61.5793555095045
894,11036,Diekirch,Luxembourg,LU,"Diekirch, Luxembourg",49.8690898,6.1600549
895,8336,Diffa,Niger,NE,"Diffa, Niger",13.3130749,12.6136611
896,27889,Dikhil,Djibouti,DJ,"Dikhil, Djibouti",11.4225322,42.2093773
897,456,Dimashq,Syria,SY,"Dimashq, Syria",33.5130695,36.3095814
898,11668,Dimitrovgrad,Serbia,RS,"Dimitrovgrad, Serbia",43.0157433,22.7781993
899,11747,Dinagat Islands,Philippines,PH,"Dinagat Islands, Philippines",10.1577932,125.5851827
900,11228,Dingli,Malta,MT,"Dingli, Malta",35.8604202,14.3816818
901,1479,Diourbel,Senegal,SN,"Diourbel, Senegal",14.7043898,-16.0511737
902,2490,Dirē Dawa,Ethiopia,ET,"Dirē Dawa, Ethiopia",9.5913193,41.8566373
903,149,District of Columbia,United States,US,"District of Columbia, United States",38.89384735,-76.9880428191095
904,372,Distrito Capital,Venezuela,VE,"Distrito Capital, Venezuela",10.47461405,-66.9692694512709
905,261,Distrito Federal,Brazil,BR,"Distrito Federal, Brazil",-15.7754462,-47.7970891
906,11398,Divača,Slovenia,SI,"Divača, Slovenia",45.6869095,14.012535298558
907,459,Diyarbakır,Turkey,TR,"Diyarbakır, Turkey",37.9162222,40.2363542
908,3672,Diyālá,Iraq,IQ,"Diyālá, Iraq",34.0228719,45.1046224
909,10180,Djanet,Algeria,DZ,"Djanet, Algeria",24.071521,9.61558472536686
910,2567,Djelfa,Algeria,DZ,"Djelfa, Algeria",34.342841,3.21725307909033
911,11391,Djibloho,Equatorial Guinea,GQ,"Djibloho, Equatorial Guinea",1.59813755,10.7970667153464
912,790,Djibouti,Djibouti,DJ,"Djibouti, Djibouti",11.8145966,42.8453061
913,5482,Dnipropetrovska Oblast,Ukraine,UA,"Dnipropetrovska Oblast, Ukraine",48.662589,34.9501715
914,10981,Dobele,Latvia,LV,"Dobele, Latvia",56.6257485,23.277275
915,11716,Dobje,Slovenia,SI,"Dobje, Slovenia",46.1348232,15.4000622529128
916,11536,Dobrepolje,Slovenia,SI,"Dobrepolje, Slovenia",45.8097528,14.7425657445546
917,35130,Dobrich,Bulgaria,BG,"Dobrich, Bulgaria",43.66377745,27.9002122593976
918,11537,Dobrna,Slovenia,SI,"Dobrna, Slovenia",46.3351752,15.2264908
919,11500,Dobrova-Polhov Gradec,Slovenia,SI,"Dobrova-Polhov Gradec, Slovenia",46.05969245,14.321681370163
920,11505,Dobrovnik,Slovenia,SI,"Dobrovnik, Slovenia",46.6517662,16.3447447
921,24976,Dodoma,Tanzania,TZ,"Dodoma, Tanzania",-6.1791181,35.7468174
922,11731,Dojran,Macedonia,MK,"Dojran, Macedonia",41.2115442,22.7464103473253
923,9373,Dokolo,Uganda,UG,"Dokolo, Uganda",1.91008225,33.0796334932789
924,11514,Dol pri Ljubljani,Slovenia,SI,"Dol pri Ljubljani, Slovenia",46.0883398,14.6415113
925,11511,Dolenjske Toplice,Slovenia,SI,"Dolenjske Toplice, Slovenia",45.7572692,15.0583791
926,35556,Dolj,Romania,RO,"Dolj, Romania",44.2141283,23.6692349082031
927,11647,Doljevac,Serbia,RS,"Doljevac, Serbia",43.1974263,21.8240024380616
928,11642,Dolneni,Macedonia,MK,"Dolneni, Macedonia",41.4239024,21.4544889
929,26988,Dolnośląskie,Poland,PL,"Dolnośląskie, Poland",50.9206028,16.4946351
930,11239,Domagnano,San Marino,SM,"Domagnano, San Marino",43.9475027,12.4690616
931,10411,Domžale,Slovenia,SI,"Domžale, Slovenia",46.1394296,14.5944553
932,29674,Doncaster,United Kingdom,GB,"Doncaster, United Kingdom",53.5227681,-1.1335312
933,11061,Donduşeni,Moldova,MD,"Donduşeni, Moldova",48.2374994,27.610869
934,11394,Donegal,Ireland,IE,"Donegal, Ireland",54.92075415,-7.95238521465131
935,15012,Donetska Oblast,Ukraine,UA,"Donetska Oblast, Ukraine",48.9524312,38.5011957
936,44411,Donga,Benin,BJ,"Donga, Benin",9.2679806,1.7170684
937,11448,Dornava,Slovenia,SI,"Dornava, Slovenia",46.4353478,15.9548875
938,7829,Dornod,Mongolia,MN,"Dornod, Mongolia",47.6772781,115.2177155
939,9400,Dornogovĭ,Mongolia,MN,"Dornogovĭ, Mongolia",44.4179637,109.7783753
940,39911,Dorset,United Kingdom,GB,"Dorset, United Kingdom",50.79683685,-2.34473226124306
941,16227,Dosso,Niger,NE,"Dosso, Niger",13.3336993,3.621398
942,8496,Dowa,Malawi,MW,"Dowa, Malawi",-13.53875785,33.7781079828639
943,8067,Dragash,Kosovo,XK,"Dragash, Kosovo",42.0615806,20.6533669
944,11214,Dravograd,Slovenia,SI,"Dravograd, Slovenia",46.5896276,15.0235456
945,18933,Drenthe,Netherlands,NL,"Drenthe, Netherlands",52.9067922,6.6368423
946,10430,Drochia,Moldova,MD,"Drochia, Moldova",48.1128441,27.8095419
947,10446,Druskininkai,Lithuania,LT,"Druskininkai, Lithuania",54.0171932,23.9772282
948,32275,Drâa-Tafilalet,Morocco,MA,"Drâa-Tafilalet, Morocco",31.1835432,-5.1395435
949,233,Dubayy,United Arab Emirates,AE,"Dubayy, United Arab Emirates",25.2653471,55.2924914
950,8625,Dublin,Ireland,IE,"Dublin, Ireland",53.3493795,-6.2605593
951,30410,Dubrovačko-Neretvanska Županija,Croatia,HR,"Dubrovačko-Neretvanska Županija, Croatia",42.8143166,17.3746628
952,11756,Dubăsari,Moldova,MD,"Dubăsari, Moldova",47.2687548,29.1493655
953,9469,Dudley,United Kingdom,GB,"Dudley, United Kingdom",52.5110832,-2.0816813
954,19506,Dumfries and Galloway,United Kingdom,GB,"Dumfries and Galloway, United Kingdom",55.083333,-3.833333
955,23358,Dumyāţ,Egypt,EG,"Dumyāţ, Egypt",31.4167427,31.8213657
956,7481,Dunaújváros,Hungary,HU,"Dunaújváros, Hungary",46.9669545,18.9393976
957,4246,Dundee City,United Kingdom,GB,"Dundee City, United Kingdom",56.473846,-2.96641895351409
958,10596,Dundgovĭ,Mongolia,MN,"Dundgovĭ, Mongolia",45.5186722,106.2611562
959,11376,Duplek,Slovenia,SI,"Duplek, Slovenia",46.5091395,15.7626570468313
960,16620,Durango,Mexico,MX,"Durango, Mexico",24.833333,-104.833333
961,33508,Durazno,Uruguay,UY,"Durazno, Uruguay",-33.0833329,-56.0833331
962,9001,Durham,United Kingdom,GB,"Durham, United Kingdom",54.666667,-1.75
963,29823,Durrës,Albania,AL,"Durrës, Albania",41.313255,19.4462348
964,777,Dushanbe,Tajikistan,TJ,"Dushanbe, Tajikistan",38.5762709,68.7863573
965,23058,Dytikí Elláda,Greece,GR,"Dytikí Elláda, Greece",,
966,6692,Dytikí Makedonía,Greece,GR,"Dytikí Makedonía, Greece",,
967,9149,Dzavhan,Mongolia,MN,"Dzavhan, Mongolia",48.2934284,96.4479958
968,40988,Dâmboviţa,Romania,RO,"Dâmboviţa, Romania",44.9224565,25.481957543285
969,827,Díli,Timor-Leste,TL,"Díli, Timor-Leste",-8.5536809,125.5784093
970,34009,Dún Laoghaire-Rathdown,Ireland,IE,"Dún Laoghaire-Rathdown, Ireland",53.25672455,-6.20486586974167
971,31270,Düzce,Turkey,TR,"Düzce, Turkey",40.8774545,31.2009618
972,15210,Dādra and Nagar Haveli and Damān and Diu,India,IN,"Dādra and Nagar Haveli and Damān and Diu, India",20.71817495,70.9323834101064
973,35969,Dāykundī,Afghanistan,AF,"Dāykundī, Afghanistan",33.725113,66.2196554
974,7039,Ealing,United Kingdom,GB,"Ealing, United Kingdom",51.5126553,-0.3051952
975,16109,East Ayrshire,United Kingdom,GB,"East Ayrshire, United Kingdom",55.5,-4.25
976,7376,East Berbice-Corentyne,Guyana,GY,"East Berbice-Corentyne, Guyana",3.8972611,-58.1383924674036
977,2577,East Darfur,Sudan,SD,"East Darfur, Sudan",11.2231983,26.5858041
978,9945,East Dunbartonshire,United Kingdom,GB,"East Dunbartonshire, United Kingdom",55.933333,-4.2
979,25141,East Lothian,United Kingdom,GB,"East Lothian, United Kingdom",55.915797,-2.7511952
980,9319,East New Britain,Papua New Guinea,PG,"East New Britain, Papua New Guinea",-5.1386278,151.9020187
981,28252,East Renfrewshire,United Kingdom,GB,"East Renfrewshire, United Kingdom",55.7494793,-4.36065924945091
982,9630,East Riding of Yorkshire,United Kingdom,GB,"East Riding of Yorkshire, United Kingdom",53.9112323,-0.5813105
983,8844,East Sepik,Papua New Guinea,PG,"East Sepik, Papua New Guinea",-4.355541,143.2325162
984,5807,East Sussex,United Kingdom,GB,"East Sussex, United Kingdom",50.9404266,0.369997789106886
985,43593,Eastern Cape,South Africa,ZA,"Eastern Cape, South Africa",-32.2171831,26.6386401
986,9655,Eastern Equatoria,South Sudan,SS,"Eastern Equatoria, South Sudan",5.283932,33.5912329
987,25524,Eastern,Ghana,GH,"Eastern, Ghana",6.446877,-0.3770964
988,9183,Eastern Highlands,Papua New Guinea,PG,"Eastern Highlands, Papua New Guinea",-6.5,145.583333
989,5405,Eastern,Sri Lanka,LK,"Eastern, Sri Lanka",7.7473677,81.58863541343
990,18601,Eastern Province,Rwanda,RW,"Eastern Province, Rwanda",-1.74151365,30.5404281873898
991,4753,Eastern,Sierra Leone,SL,"Eastern, Sierra Leone",8.2050971,-10.8437382637735
992,24806,Eastern Samar,Philippines,PH,"Eastern Samar, Philippines",11.73,125.37
993,6007,Eastern,Zambia,ZM,"Eastern, Zambia",-13.6514737,31.9958539
994,11643,Ebonyi,Nigeria,NG,"Ebonyi, Nigeria",6.1996918,8.0348906
995,11119,Echternach,Luxembourg,LU,"Echternach, Luxembourg",49.8120961,6.4214859
996,40912,"Edinburgh, City of",United Kingdom,GB,"Edinburgh, City of, United Kingdom",55.9519018,-3.1904199
997,10011,Edineţ,Moldova,MD,"Edineţ, Moldova",48.1684275,27.2984813
998,38310,Edirne,Turkey,TR,"Edirne, Turkey",41.6763707,26.5566834
999,4193,Edo,Nigeria,NG,"Edo, Nigeria",6.6076575,5.9722713
1000,5268,Ehime,Japan,JP,"Ehime, Japan",33.6013646,132.8185275
1001,11803,Eiði,Faroe Islands,FO,"Eiði, Faroe Islands",62.3004264,-7.0894368
1002,1694,Ekiti,Nigeria,NG,"Ekiti, Nigeria",7.736891,5.2738326
1003,6234,El Bayadh,Algeria,DZ,"El Bayadh, Algeria",32.570303,1.12595814428181
1004,11897,El Beni,Bolivia,BO,"El Beni, Bolivia",-11.5465681,-66.6784112
1005,11784,El Meghaier,Algeria,DZ,"El Meghaier, Algeria",,
1006,7721,El Meniaa,Algeria,DZ,"El Meniaa, Algeria",30.7071885,3.04806248004973
1007,15657,El Oro,Ecuador,EC,"El Oro, Ecuador",-3.5311093,-79.8333234
1008,4599,El Oued,Algeria,DZ,"El Oued, Algeria",33.215441,7.15532139909833
1009,12307,El Paraíso,Honduras,HN,"El Paraíso, Honduras",13.84938125,-86.5300059464761
1010,14803,El Progreso,Guatemala,GT,"El Progreso, Guatemala",14.91004365,-90.0682727921327
1011,8766,El Tarf,Algeria,DZ,"El Tarf, Algeria",36.67135625,8.07013400205364
1012,16524,El Valle,Dominican Republic,DO,"El Valle, Dominican Republic",18.94415675,-69.3851094186405
1013,1766,Elazığ,Turkey,TR,"Elazığ, Turkey",38.5824771,39.396179
1014,6305,Elbasan,Albania,AL,"Elbasan, Albania",41.1105874,20.0794072
1015,10694,Elektrénai,Lithuania,LT,"Elektrénai, Lithuania",54.786657,24.6708398
1016,7500,Elgeyo/Marakwet,Kenya,KE,"Elgeyo/Marakwet, Kenya",0.74221915,35.5618083135393
1017,11839,Emberá-Wounaan,Panama,PA,"Emberá-Wounaan, Panama",8.4210754,-77.5922690009777
1018,7635,Embu,Kenya,KE,"Embu, Kenya",-0.5359479,37.6652884382665
1019,21926,Emilia-Romagna,Italy,IT,"Emilia-Romagna, Italy",44.525696,11.039437
1020,10571,Encamp,Andorra,AD,"Encamp, Andorra",42.5360425,1.5836096
1021,9016,Enfield,United Kingdom,GB,"Enfield, United Kingdom",51.6520851,-0.0810175
1022,11233,Enga,Papua New Guinea,PG,"Enga, Papua New Guinea",-5.6725937,143.6436942
1023,9284,Ennedi-Est,Chad,TD,"Ennedi-Est, Chad",17.6219737,23.3133676
1024,8980,Ennedi-Ouest,Chad,TD,"Ennedi-Ouest, Chad",18.1636803,21.5082709
1025,43989,Enriquillo,Dominican Republic,DO,"Enriquillo, Dominican Republic",17.98704805,-71.3278175611275
1026,20143,Entre Ríos,Argentina,AR,"Entre Ríos, Argentina",-31.6252842,-59.3539578
1027,5424,Enugu,Nigeria,NG,"Enugu, Nigeria",6.5536094,7.4143061
1028,10970,Ermera,Timor-Leste,TL,"Ermera, Timor-Leste",-8.8171153,125.383028316429
1029,35131,Erzincan,Turkey,TR,"Erzincan, Turkey",39.6073429,39.2013209
1030,23581,Erzurum,Turkey,TR,"Erzurum, Turkey",39.7581897,41.4032241
1031,10118,Escaldes-Engordany,Andorra,AD,"Escaldes-Engordany, Andorra",42.48691275,1.60700011402922
1032,7808,Esch-sur-Alzette,Luxembourg,LU,"Esch-sur-Alzette, Luxembourg",49.4959628,5.9850306
1033,11186,Eschen,Liechtenstein,LI,"Eschen, Liechtenstein",47.2126274,9.5233202
1034,27632,Escuintla,Guatemala,GT,"Escuintla, Guatemala",14.3022857,-90.7866243
1035,37515,Eskişehir,Turkey,TR,"Eskişehir, Turkey",39.6821156,31.0723476
1036,20798,Esmeraldas,Ecuador,EC,"Esmeraldas, Ecuador",0.7343619,-79.3858867
1037,13831,Espírito Santo,Brazil,BR,"Espírito Santo, Brazil",-19.5687682,-40.1721991
1038,11416,Essequibo Islands-West Demerara,Guyana,GY,"Essequibo Islands-West Demerara, Guyana",6.666667,-58.5
1039,30658,Essex,United Kingdom,GB,"Essex, United Kingdom",51.77046785,0.464669774123004
1040,22194,Est,Burkina Faso,BF,"Est, Burkina Faso",12.2527495,0.8736106
1041,27235,Est,Cameroon,CM,"Est, Cameroon",3.9894393,14.178373
1042,25550,Estelí,Nicaragua,NI,"Estelí, Nicaragua",13.1484739,-86.4712707015802
1043,781,Estuaire,Gabon,GA,"Estuaire, Gabon",0.4302639,9.4655189
1044,34153,Etelä-Karjala,Finland,FI,"Etelä-Karjala, Finland",61.2667443,28.4054849361427
1045,31723,Etelä-Pohjanmaa,Finland,FI,"Etelä-Pohjanmaa, Finland",62.73893905,23.1124434775342
1046,7097,Etelä-Savo,Finland,FI,"Etelä-Savo, Finland",61.8424126,28.0286388545145
1047,30449,Extremadura,Spain,ES,"Extremadura, Spain",39.1748426,-6.1529891
1048,2216,Extrême-Nord,Cameroon,CM,"Extrême-Nord, Cameroon",10.6377186,14.2738156
1049,11785,Eystur,Faroe Islands,FO,"Eystur, Faroe Islands",62.3244046,-6.94170928363537
1050,30489,Eşfahān,Iran,IR,"Eşfahān, Iran",32.6707877,51.6650002
1051,10735,Faadhippolhu,Maldives,MV,"Faadhippolhu, Maldives",5.3992544,73.5273924090907
1052,11463,Faetano,San Marino,SM,"Faetano, San Marino",43.9269122,12.4974633
1053,19236,Falcón,Venezuela,VE,"Falcón, Venezuela",11.273946,-69.5834205390738
1054,31537,Falkirk,United Kingdom,GB,"Falkirk, United Kingdom",55.9991959,-3.784376
1055,13629,Faranah,Guinea,GN,"Faranah, Guinea",10.3143203,-10.890097
1056,22148,Farg‘ona,Uzbekistan,UZ,"Farg‘ona, Uzbekistan",40.5,71.25
1057,39329,Faro,Portugal,PT,"Faro, Portugal",37.0162727,-7.9351771
1058,43979,Farāh,Afghanistan,AF,"Farāh, Afghanistan",32.607111,62.671011
1059,30309,Fatick,Senegal,SN,"Fatick, Senegal",13.9406041,-16.4024021
1060,11774,Fa‘asaleleaga,Samoa,WS,"Fa‘asaleleaga, Samoa",,
1061,3122,Federal Capital Territory,Nigeria,NG,"Federal Capital Territory, Nigeria",8.8311228,7.1724673
1062,34107,Fejér,Hungary,HU,"Fejér, Hungary",47.0939434,18.6088562
1063,11379,Felidheatholhu,Maldives,MV,"Felidheatholhu, Maldives",,
1064,5568,Ferizaj,Kosovo,XK,"Ferizaj, Kosovo",42.3682168,21.1532848
1065,31359,Fermanagh and Omagh,United Kingdom,GB,"Fermanagh and Omagh, United Kingdom",54.4936363,-7.5369519
1066,9138,Fgura,Malta,MT,"Fgura, Malta",35.8728325,14.520799
1067,28809,Fianarantsoa,Madagascar,MG,"Fianarantsoa, Madagascar",-21.456444,47.085149
1068,19952,Fier,Albania,AL,"Fier, Albania",40.7251118,19.5582079
1069,27958,Fife,United Kingdom,GB,"Fife, United Kingdom",56.3333331,-3.0000001
1070,7723,Fingal,Ireland,IE,"Fingal, Ireland",53.49422125,-6.22498020932367
1071,11316,Fiorentino,San Marino,SM,"Fiorentino, San Marino",43.9103157,12.4575556
1072,34667,Flacq,Mauritius,MU,"Flacq, Mauritius",-20.2218172,57.7209411016034
1073,21618,Flanders,Belgium,BE,"Flanders, Belgium",51.0962462,4.17862910316992
1074,25053,Flevoland,Netherlands,NL,"Flevoland, Netherlands",52.4484375,5.4235397
1075,9134,Flintshire,United Kingdom,GB,"Flintshire, United Kingdom",53.2165096,-3.14021890497304
1076,24687,Flores,Uruguay,UY,"Flores, Uruguay",-33.583333,-56.833333
1077,10647,Floreşti,Moldova,MD,"Floreşti, Moldova",47.8938318,28.2996474
1078,11215,Floriana,Malta,MT,"Floriana, Malta",35.8929838,14.5052716
1079,18329,Florida,United States,US,"Florida, United States",27.7567667,-81.4639835
1080,7767,Florida (UY),Uruguay,UY,"Florida, Uruguay",-33.833333,-55.916667
1081,11325,Fontana,Malta,MT,"Fontana, Malta",36.038744,14.2370014
1082,43687,Formosa,Argentina,AR,"Formosa, Argentina",-24.5955306,-60.4289718
1083,29793,Francisco Morazán,Honduras,HN,"Francisco Morazán, Honduras",14.34304775,-87.1141956804593
1084,5765,Francistown,Botswana,BW,"Francistown, Botswana",-21.16636,27.502515
1085,1733,Free State,South Africa,ZA,"Free State, South Africa",-28.7853618,26.4978933
1086,10243,Fribourg,Switzerland,CH,"Fribourg, Switzerland",46.6789116,7.1027113
1087,18620,Friuli Venezia Giulia,Italy,IT,"Friuli Venezia Giulia, Italy",46.151042,13.055904
1088,33775,Fryslân,Netherlands,NL,"Fryslân, Netherlands",53.0923689,5.777043
1089,11757,Fuglafjarður,Faroe Islands,FO,"Fuglafjarður, Faroe Islands",,
1090,11832,Fugloy,Faroe Islands,FO,"Fugloy, Faroe Islands",62.33525625,-6.29524287678865
1091,1676,Fujian,China,CN,"Fujian, China",26.193218,118.2208721
1092,32690,Fukui,Japan,JP,"Fukui, Japan",35.9263502,136.6068127
1093,5781,Fukuoka,Japan,JP,"Fukuoka, Japan",33.6251241,130.6180016
1094,2156,Fukushima,Japan,JP,"Fukushima, Japan",37.75454,140.4592144
1095,882,Funafuti,Tuvalu,TV,"Funafuti, Tuvalu",-8.5199633,179.1982548
1096,8109,Fushë Kosovë,Kosovo,XK,"Fushë Kosovë, Kosovo",42.6374117,21.093132
1097,10001,Fuvammulah,Maldives,MV,"Fuvammulah, Maldives",,
1098,11758,Fámjin,Faroe Islands,FO,"Fámjin, Faroe Islands",61.524861,-6.8786368
1099,10142,Fès-Meknès,Morocco,MA,"Fès-Meknès, Morocco",33.8333136,-4.8556382
1100,9733,Füzuli,Azerbaijan,AZ,"Füzuli, Azerbaijan",39.58356755,47.3806998083944
1101,21709,Fārs,Iran,IR,"Fārs, Iran",32.6475314,54.5643516
1102,4209,Fāryāb,Afghanistan,AF,"Fāryāb, Afghanistan",35.9261784,64.6237758
1103,10635,Făleşti,Moldova,MD,"Făleşti, Moldova",47.5735141,27.7068016
1104,825,Gaborone,Botswana,BW,"Gaborone, Botswana",-24.6581357,25.9088474
1105,35978,Gabrovo,Bulgaria,BG,"Gabrovo, Bulgaria",42.9638895,25.2119538464642
1106,20499,Gabès,Tunisia,TN,"Gabès, Tunisia",33.7765032,9.79306296557616
1107,36012,Gabú,Guinea-Bissau,GW,"Gabú, Guinea-Bissau",12.11703505,-14.1762505779696
1108,11734,Gadžin Han,Serbia,RS,"Gadžin Han, Serbia",43.2235312,22.0324274
1109,34430,Gafsa,Tunisia,TN,"Gafsa, Tunisia",34.43367,8.79079875204918
1110,11465,Gagaifomauga,Samoa,WS,"Gagaifomauga, Samoa",-13.5374517,-172.474571688097
1111,11587,Gaga‘emauga,Samoa,WS,"Gaga‘emauga, Samoa",,
1112,2703,Galaţi,Romania,RO,"Galaţi, Romania",45.4338215,28.0549395
1113,11627,Galguduud,Somalia,SO,"Galguduud, Somalia",5,47
1114,11935,Galicia,Spain,ES,"Galicia, Spain",42.61946,-7.863112
1115,40381,Galway,Ireland,IE,"Galway, Ireland",53.2744122,-9.0490601
1116,9679,Galápagos,Ecuador,EC,"Galápagos, Ecuador",-0.0606899,-90.673898
1117,7542,Gambēla Hizboch,Ethiopia,ET,"Gambēla Hizboch, Ethiopia",7.8102647,34.1822172
1118,11401,Gamprin,Liechtenstein,LI,"Gamprin, Liechtenstein",47.2190937,9.5102476
1119,2151,Gangwon,South Korea,KR,"Gangwon, South Korea",37.885,127.7297
1120,3444,Gansu,China,CN,"Gansu, China",38.0000001,101.9999999
1121,20984,Gao,Mali,ML,"Gao, Mali",16.2788129,-0.0412392
1122,6374,Garissa,Kenya,KE,"Garissa, Kenya",-0.52363325,40.3564053496207
1123,29416,Garðabær,Iceland,IS,"Garðabær, Iceland",64.0880255,-21.9193961
1124,11836,Gasa,Bhutan,BT,"Gasa, Bhutan",27.9190875,89.7875318
1125,43700,Gash-Barka,Eritrea,ER,"Gash-Barka, Eritrea",15.25,37.5
1126,38819,Gateshead,United Kingdom,GB,"Gateshead, United Kingdom",54.9625789,-1.6019294
1127,11996,Gauteng,South Africa,ZA,"Gauteng, South Africa",-25.9363439,28.0813105
1128,26206,Gaza,Mozambique,MZ,"Gaza, Mozambique",-23.328398,32.8066057
1129,24498,Gaziantep,Turkey,TR,"Gaziantep, Turkey",37.0628317,37.3792617
1130,1998,Gaṇḍakī,Nepal,NP,"Gaṇḍakī, Nepal",28.3740324,84.0513324
1131,11319,Gbarpolu,Liberia,LR,"Gbarpolu, Liberia",7.2681564,-10.3814771
1132,1995,Gedaref,Sudan,SD,"Gedaref, Sudan",13.9758355,35.0850849
1133,14648,Gedo,Somalia,SO,"Gedo, Somalia",3,42
1134,9285,Geghark’unik’,Armenia,AM,"Geghark’unik’, Armenia",40.3030726,45.375739
1135,8296,Geita,Tanzania,TZ,"Geita, Tanzania",-2.89916835,31.990338133038
1136,21660,Gelderland,Netherlands,NL,"Gelderland, Netherlands",52.1014041,5.9515701
1137,1193,General Santos,Philippines,PH,"General Santos, Philippines",6.112331,125.1717145
1138,3086,Genève,Switzerland,CH,"Genève, Switzerland",46.2047169,6.14231062909393
1139,31217,Georgia,United States,US,"Georgia, United States",32.3293809,-83.1137366
1140,11176,Gevgelija,Macedonia,MK,"Gevgelija, Macedonia",41.1388664,22.5033192
1141,2074,Gezira,Sudan,SD,"Gezira, Sudan",14.6671537,33.222361
1142,9229,Ghanzi,Botswana,BW,"Ghanzi, Botswana",-22.145794,22.7610828
1143,5063,Ghardaïa,Algeria,DZ,"Ghardaïa, Algeria",32.440827,3.56182085216288
1144,4355,Ghaznī,Afghanistan,AF,"Ghaznī, Afghanistan",33.5448968,68.4132108
1145,9174,Ghāt,Libya,LY,"Ghāt, Libya",26.0198133,10.4339911
1146,31181,Ghōr,Afghanistan,AF,"Ghōr, Afghanistan",34.1605257,64.9201949
1147,15026,Gia Lai,Vietnam,VN,"Gia Lai, Vietnam",13.8177445,108.2004015
1148,8506,Gifu,Japan,JP,"Gifu, Japan",35.7867449,137.0460777
1149,43058,Gilgit-Baltistan,Pakistan,PK,"Gilgit-Baltistan, Pakistan",35.9999972,75.0000023
1150,19620,Giresun,Turkey,TR,"Giresun, Turkey",40.6531617,38.5172032
1151,8018,Gisborne,New Zealand,NZ,"Gisborne, New Zealand",-38.661326,178.0206487
1152,840,Gitega,Burundi,BI,"Gitega, Burundi",-3.5382336,29.910701
1153,6827,Giurgiu,Romania,RO,"Giurgiu, Romania",43.8959058,25.9658111
1154,6075,Gjakovë,Kosovo,XK,"Gjakovë, Kosovo",42.3798793,20.4316226
1155,7107,Gjilan,Kosovo,XK,"Gjilan, Kosovo",42.463515,21.4693599
1156,8939,Gjirokastër,Albania,AL,"Gjirokastër, Albania",40.0770871,20.1393359
1157,11109,Glarus,Switzerland,CH,"Glarus, Switzerland",46.9796562,9.108812
1158,1309,Glasgow City,United Kingdom,GB,"Glasgow City, United Kingdom",55.85551155,-4.22623065725823
1159,6968,Gllogovc,Kosovo,XK,"Gllogovc, Kosovo",42.50200805,21.1509182844948
1160,10983,Glodeni,Moldova,MD,"Glodeni, Moldova",47.7744001,27.50441
1161,41123,Gloucestershire,United Kingdom,GB,"Gloucestershire, United Kingdom",51.7643786,-2.18806618387194
1162,31834,Goa,India,IN,"Goa, India",15.3004543,74.0855134
1163,39842,Goiás,Brazil,BR,"Goiás, Brazil",-15.9323662,-50.1392928
1164,26792,Golestān,Iran,IR,"Golestān, Iran",37.1984436,55.070672
1165,11792,Golubac,Serbia,RS,"Golubac, Serbia",44.6531108,21.6305205
1166,10541,Gomba,Uganda,UG,"Gomba, Uganda",0.20426635,31.7291771659097
1167,2535,Gombe,Nigeria,NG,"Gombe, Nigeria",10.43040185,11.2065407823322
1168,11044,Goranboy,Azerbaijan,AZ,"Goranboy, Azerbaijan",40.6035723,46.7073905550587
1169,11464,Gorenja Vas-Poljane,Slovenia,SI,"Gorenja Vas-Poljane, Slovenia",46.10873735,14.1268461059665
1170,7300,Gorgol,Mauritania,MR,"Gorgol, Mauritania",16.0062275,-12.8360834
1171,11488,Gorišnica,Slovenia,SI,"Gorišnica, Slovenia",46.4120335,16.0133821
1172,6294,Gorj,Romania,RO,"Gorj, Romania",44.96116745,23.3256799022931
1173,11586,Gorje,Slovenia,SI,"Gorje, Slovenia",46.3944847,13.9912881302446
1174,11237,Gornja Radgona,Slovenia,SI,"Gornja Radgona, Slovenia",46.6769963,15.9913176
1175,11492,Gornji Grad,Slovenia,SI,"Gornji Grad, Slovenia",46.2960951,14.8057772
1176,11461,Gornji Milanovac,Serbia,RS,"Gornji Milanovac, Serbia",44.0243159,20.4600377
1177,11620,Gornji Petrovci,Slovenia,SI,"Gornji Petrovci, Slovenia",46.8036921,16.218644
1178,3371,Gorontalo,Indonesia,ID,"Gorontalo, Indonesia",0.7186174,122.4555927
1179,7974,Gostivar,Macedonia,MK,"Gostivar, Macedonia",41.7920222,20.9081703
1180,8799,Gotland,Sweden,SE,"Gotland, Sweden",57.4174802,18.5369579274999
1181,9976,Govĭ-Altay,Mongolia,MN,"Govĭ-Altay, Mongolia",45.3463139,95.9325806
1182,10861,Govĭsümber,Mongolia,MN,"Govĭsümber, Mongolia",46.4610827,108.5173101
1183,34639,Gracias a Dios,Honduras,HN,"Gracias a Dios, Honduras",15.4333305,-84.1486869541955
1184,11570,Grad,Slovenia,SI,"Grad, Slovenia",46.801894,16.0919216
1185,11369,Gradsko,Macedonia,MK,"Gradsko, Macedonia",41.5745778,21.9531031
1186,5726,Granada,Nicaragua,NI,"Granada, Nicaragua",11.9132391,-85.883011852343
1187,15540,Grand Bassa,Liberia,LR,"Grand Bassa, Liberia",6.1640621,-9.895669
1188,10655,Grand Cape Mount,Liberia,LR,"Grand Cape Mount, Liberia",7.0496206,-11.129843
1189,38560,Grand Est,France,FR,"Grand Est, France",48.4845157,6.113035
1190,8788,Grand Gedeh,Liberia,LR,"Grand Gedeh, Liberia",5.8161533,-8.0995537
1191,11331,Grand Kru,Liberia,LR,"Grand Kru, Liberia",4.84932,-8.3308845
1192,32354,Grand Port,Mauritius,MU,"Grand Port, Mauritius",-20.3897284,57.6160761539448
1193,847,Grande Comore,Comoros,KM,"Grande Comore, Comoros",-11.65256875,43.3309705959178
1194,34794,Grand’Anse,Haiti,HT,"Grand’Anse, Haiti",18.5304144,-74.1511463
1195,20493,Granma,Cuba,CU,"Granma, Cuba",20.1947889,-77.2936264557394
1196,38336,Graubünden,Switzerland,CH,"Graubünden, Switzerland",46.6960615,9.6027351
1197,10834,Graçanicë,Kosovo,XK,"Graçanicë, Kosovo",42.5999713,21.1922853
1198,3860,Greater Accra,Ghana,GH,"Greater Accra, Ghana",5.8101532,0.0995242
1199,9371,Greenwich,United Kingdom,GB,"Greenwich, United Kingdom",51.46862565,0.048830573137551
1200,11164,Grevenmacher,Luxembourg,LU,"Grevenmacher, Luxembourg",49.679313,6.4430979
1201,43282,Groningen,Netherlands,NL,"Groningen, Netherlands",53.2190652,6.5680077
1202,24740,Gros-Islet,Saint Lucia,LC,"Gros-Islet, Saint Lucia",14.0801333,-60.9524988
1203,10952,Grosuplje,Slovenia,SI,"Grosuplje, Slovenia",45.9571788,14.6554806
1204,9415,Guainía,Colombia,CO,"Guainía, Colombia",2.5000086,-69.0000086
1205,44218,Guairá,Paraguay,PY,"Guairá, Paraguay",-25.75,-56.5
1206,44224,Guanacaste,Costa Rica,CR,"Guanacaste, Costa Rica",10.37884405,-85.4338287457323
1207,14337,Guanajuato,Mexico,MX,"Guanajuato, Mexico",20.9876996,-101
1208,14946,Guangdong,China,CN,"Guangdong, China",23.1357694,113.1982688
1209,3068,Guangxi,China,CN,"Guangxi, China",24,109
1210,41317,Guantánamo,Cuba,CU,"Guantánamo, Cuba",20.1431797,-75.2034783
1211,7594,Guarda,Portugal,PT,"Guarda, Portugal",40.7046066,-7.19513923607131
1212,4117,Guatemala,Guatemala,GT,"Guatemala, Guatemala",15.5855545,-90.345759
1213,42630,Guaviare,Colombia,CO,"Guaviare, Colombia",1.6894444,-72.8202864
1214,4596,Guayas,Ecuador,EC,"Guayas, Ecuador",-2,-80
1215,11221,Gudja,Malta,MT,"Gudja, Malta",35.8483258,14.5030882
1216,4978,Guelma,Algeria,DZ,"Guelma, Algeria",36.3491635,7.40949895276046
1217,34577,Guelmim-Oued Noun,Morocco,MA,"Guelmim-Oued Noun, Morocco",28.5273703,-10.0315515
1218,10151,Guerrero,Mexico,MX,"Guerrero, Mexico",17.666667,-100
1219,8720,Guidimaka,Mauritania,MR,"Guidimaka, Mauritania",15.3766896,-12.124663
1220,16695,Guimaras,Philippines,PH,"Guimaras, Philippines",10.5730629,122.6238907
1221,18594,Guizhou,China,CN,"Guizhou, China",27,107
1222,21146,Gujarāt,India,IN,"Gujarāt, India",22.3850051,71.745261
1223,11068,Gulbene,Latvia,LV,"Gulbene, Latvia",57.1759721,26.7514713
1224,11082,Gulf,Papua New Guinea,PG,"Gulf, Papua New Guinea",-7.5556411,144.8850036
1225,4054,Gulu,Uganda,UG,"Gulu, Uganda",3.0199023,32.3882510350201
1226,11807,Guna Yala,Panama,PA,"Guna Yala, Panama",9.1875975,-77.8713722637669
1227,3132,Gunma,Japan,JP,"Gunma, Japan",36.52198,139.033483
1228,10153,Guria,Georgia,GE,"Guria, Georgia",41.9772681,41.9828261922389
1229,11424,Gusinje,Montenegro,ME,"Gusinje, Montenegro",42.5637693,19.833253
1230,37160,Guárico,Venezuela,VE,"Guárico, Venezuela",8.8378757,-66.4203281062594
1231,37680,Guéra,Chad,TD,"Guéra, Chad",11.6753817,18.4910031
1232,527,Gwangju,South Korea,KR,"Gwangju, South Korea",35.1594647,126.8515034
1233,38668,Gwynedd,United Kingdom,GB,"Gwynedd, United Kingdom",52.9089585,-3.83352442821248
1234,2480,Gyeongbuk,South Korea,KR,"Gyeongbuk, South Korea",36.5754,128.5058
1235,3160,Gyeonggi,South Korea,KR,"Gyeonggi, South Korea",37.2752,127.0095
1236,5851,Gyeongnam,South Korea,KR,"Gyeongnam, South Korea",35.2382,128.6925
1237,39973,Győr-Moson-Sopron,Hungary,HU,"Győr-Moson-Sopron, Hungary",47.6610134,17.3796437
1238,35839,Gävleborg,Sweden,SE,"Gävleborg, Sweden",61.2603424,16.6946984981291
1239,3599,Gôh-Djiboua,Côte d'Ivoire,CI,"Gôh-Djiboua, Côte d'Ivoire",5.9536464,-5.6069906
1240,8774,Göygöl,Azerbaijan,AZ,"Göygöl, Azerbaijan",40.5306747,46.3218922163641
1241,7944,Göyçay,Azerbaijan,AZ,"Göyçay, Azerbaijan",40.5705027,47.842443837552
1242,7006,Gümüşhane,Turkey,TR,"Gümüşhane, Turkey",40.2533219,39.384968
1243,37653,Găgăuzia,Moldova,MD,"Găgăuzia, Moldova",46.203052,28.761579037357
1244,11294,Għajnsielem,Malta,MT,"Għajnsielem, Malta",36.0288642,14.2871759
1245,11411,Għarb,Malta,MT,"Għarb, Malta",36.0598182,14.209081
1246,11234,Għargħur,Malta,MT,"Għargħur, Malta",35.9240307,14.4531676
1247,11579,Għasri,Malta,MT,"Għasri, Malta",36.0655404,14.22173
1248,11126,Għaxaq,Malta,MT,"Għaxaq, Malta",35.8484527,14.5173587
1249,1220,Gīlān,Iran,IR,"Gīlān, Iran",37.1515627,49.6389743
1250,10413,Gżira,Malta,MT,"Gżira, Malta",35.9077803,14.4961247
1251,10984,Gədəbəy,Azerbaijan,AZ,"Gədəbəy, Azerbaijan",40.5551911,45.674356745872
1252,2144,Gəncə,Azerbaijan,AZ,"Gəncə, Azerbaijan",40.6798083,46.3597178
1253,11742,Haa,Bhutan,BT,"Haa, Bhutan",27.3596658,89.2357556
1254,10853,Haapsalu,Estonia,EE,"Haapsalu, Estonia",58.9399019,23.5414798
1255,8487,Hackney,United Kingdom,GB,"Hackney, United Kingdom",51.5432402,-0.0493621
1256,9215,Hacıqabul,Azerbaijan,AZ,"Hacıqabul, Azerbaijan",40.1032431,48.9271509492358
1257,27066,Hadjer-Lamis,Chad,TD,"Hadjer-Lamis, Chad",12.6903906,16.3352648
1258,20311,Hafnarfjörður,Iceland,IS,"Hafnarfjörður, Iceland",64.0695354,-21.9575664
1259,11520,Hahdhunmathi,Maldives,MV,"Hahdhunmathi, Maldives",,
1260,22364,Haifa,Israel,IL,"Haifa, Israel",32.799313,34.9895717157282
1261,21464,Hainan,China,CN,"Hainan, China",19.2000001,109.5999999
1262,11517,Hajdina,Slovenia,SI,"Hajdina, Slovenia",46.41990755,15.8239305751558
1263,28687,Hajdú-Bihar,Hungary,HU,"Hajdú-Bihar, Hungary",47.4407848,21.4752281
1264,6325,Hakkâri,Turkey,TR,"Hakkâri, Turkey",37.495358,44.1054777
1265,18051,Halland,Sweden,SE,"Halland, Sweden",56.9608104,12.8547066457627
1266,30441,Halton,United Kingdom,GB,"Halton, United Kingdom",53.35385255,-2.74278287853935
1267,1228,Hamadān,Iran,IR,"Hamadān, Iran",34.9726302,48.6563818
1268,12738,Hambuk,North Korea,KP,"Hambuk, North Korea",,
1269,335,Hamburg,Germany,DE,"Hamburg, Germany",53.550341,10.000654
1270,892,Hamilton,Bermuda,BM,"Hamilton, Bermuda",32.2942679,-64.7853167
1271,5307,Hammersmith and Fulham,United Kingdom,GB,"Hammersmith and Fulham, United Kingdom",51.4983142,-0.227878183582224
1272,2076,Hamnam,North Korea,KP,"Hamnam, North Korea",,
1273,8742,Hampshire,United Kingdom,GB,"Hampshire, United Kingdom",51.04483545,-1.24340935971731
1274,10929,Hani i Elezit,Kosovo,XK,"Hani i Elezit, Kosovo",42.1513385,21.2978185
1275,11105,Hanover,Jamaica,JM,"Hanover, Jamaica",18.3850653,-78.1309930062778
1276,384,Harare,Zimbabwe,ZW,"Harare, Zimbabwe",-17.8567035,31.0601584
1277,32659,Harghita,Romania,RO,"Harghita, Romania",46.6443061,25.6221918587706
1278,4425,Haringey,United Kingdom,GB,"Haringey, United Kingdom",51.58792985,-0.10541771297992
1279,9713,Harrow,United Kingdom,GB,"Harrow, United Kingdom",51.59682715,-0.337304618043729
1280,6117,Hartlepool,United Kingdom,GB,"Hartlepool, United Kingdom",54.6857276,-1.2093696
1281,4050,Haryāna,India,IN,"Haryāna, India",29,76
1282,25680,Haskovo,Bulgaria,BG,"Haskovo, Bulgaria",41.763101,25.925625512479
1283,29601,Hatay,Turkey,TR,"Hatay, Turkey",36.3451332,36.0748022
1284,1571,Haut-Katanga,Congo (Kinshasa),CD,"Haut-Katanga, Congo (Kinshasa)",-10.51971805,27.8432803980485
1285,15294,Haut-Lomami,Congo (Kinshasa),CD,"Haut-Lomami, Congo (Kinshasa)",-8.7129757,24.9893335
1286,26150,Haut-Mbomou,Central African Republic,CF,"Haut-Mbomou, Central African Republic",6.3497929,25.6508738
1287,5488,Haut-Ogooué,Gabon,GA,"Haut-Ogooué, Gabon",-1.6398736,13.5894024
1288,15266,Haut-Uélé,Congo (Kinshasa),CD,"Haut-Uélé, Congo (Kinshasa)",3.33984995,28.7892739768041
1289,8037,Haute-Kotto,Central African Republic,CF,"Haute-Kotto, Central African Republic",7.3625645,22.9271411
1290,981,Hauts-Bassins,Burkina Faso,BF,"Hauts-Bassins, Burkina Faso",11.3890275,-4.04136498647626
1291,24330,Hauts-de-France,France,FR,"Hauts-de-France, France",50.1024606,2.7247515
